
  79836414, $GPGGA,221036.80,3945.0885046,N,10513.2593760,W,4,24,0.7,1761.322,M,-15.956,M,2.8,0000*45
  79837415, $GPGGA,221037.80,3945.0885016,N,10513.2593761,W,4,24,0.7,1761.314,M,-15.956,M,1.8,0000*46
  79838415, $GPGGA,221038.80,3945.0885010,N,10513.2593835,W,4,24,0.7,1761.310,M,-15.956,M,2.8,0000*46
  79839414, $GPGGA,221039.80,3945.0885195,N,10513.2594239,W,4,24,0.7,1761.324,M,-15.956,M,1.8,0000*4E
  79840415, $GPGGA,221040.80,3945.0885199,N,10513.2594337,W,4,24,0.7,1761.326,M,-15.956,M,2.8,0000*42
  79841415, $GPGGA,221041.80,3945.0883272,N,10513.2597402,W,4,24,0.7,1761.304,M,-15.956,M,1.8,0000*42
  79842415, $GPGGA,221042.80,3945.0881341,N,10513.2603529,W,4,24,0.7,1761.334,M,-15.956,M,2.8,0000*44
  79843415, $GPGGA,221043.80,3945.0879370,N,10513.2610345,W,4,23,0.7,1761.391,M,-15.956,M,1.8,0000*45
  79844415, $GPGGA,221044.80,3945.0875956,N,10513.2617141,W,4,24,0.7,1761.453,M,-15.956,M,2.8,0000*4C
  79845413, $GPGGA,221045.80,3945.0871979,N,10513.2623020,W,4,24,0.7,1761.422,M,-15.956,M,1.8,0000*40
  79846415, $GPGGA,221046.80,3945.0868330,N,10513.2629348,W,4,24,0.7,1761.473,M,-15.956,M,2.8,0000*4C
  79847415, $GPGGA,221047.80,3945.0864727,N,10513.2635663,W,4,24,0.7,1761.538,M,-15.956,M,1.8,0000*4F
  79848415, $GPGGA,221048.80,3945.0860616,N,10513.2641657,W,4,24,0.7,1761.563,M,-15.955,M,2.8,0000*4D
  79849413, $GPGGA,221049.80,3945.0857438,N,10513.2648376,W,4,24,0.7,1761.602,M,-15.955,M,3.8,0000*4C
  79850416, $GPGGA,221050.80,3945.0853489,N,10513.2655423,W,4,23,0.7,1761.657,M,-15.955,M,4.8,0000*41
  79851413, $GPGGA,221051.80,3945.0849458,N,10513.2662677,W,4,24,0.7,1761.677,M,-15.955,M,1.8,0000*40
  79852414, $GPGGA,221052.80,3945.0845603,N,10513.2670235,W,4,24,0.7,1761.650,M,-15.955,M,2.8,0000*44
  79853415, $GPGGA,221053.80,3945.0841767,N,10513.2677947,W,4,24,0.7,1761.699,M,-15.955,M,1.8,0000*4D
  79854416, $GPGGA,221054.80,3945.0837703,N,10513.2685447,W,4,24,0.7,1761.787,M,-15.955,M,2.8,0000*44
  79855415, $GPGGA,221055.80,3945.0833300,N,10513.2693113,W,4,24,0.7,1761.827,M,-15.955,M,1.8,0000*43
  79856416, $GPGGA,221056.80,3945.0829252,N,10513.2700418,W,4,24,0.7,1761.847,M,-15.955,M,2.8,0000*4D
  79857414, $GPGGA,221057.80,3945.0825868,N,10513.2708377,W,4,24,0.7,1761.891,M,-15.955,M,1.8,0000*4D
  79858415, $GPGGA,221058.80,3945.0821726,N,10513.2715756,W,4,24,0.7,1761.965,M,-15.955,M,2.8,0000*41
  79859415, $GPGGA,221059.80,3945.0817559,N,10513.2723056,W,4,24,0.7,1762.013,M,-15.955,M,1.8,0000*45
  79860414, $GPGGA,221100.80,3945.0813534,N,10513.2730387,W,4,24,0.7,1762.028,M,-15.955,M,2.8,0000*41
  79861415, $GPGGA,221101.80,3945.0809414,N,10513.2737652,W,4,24,0.7,1762.049,M,-15.955,M,3.8,0000*44
  79862413, $GPGGA,221102.80,3945.0805682,N,10513.2745039,W,4,24,0.7,1762.134,M,-15.955,M,4.8,0000*44
  79863414, $GPGGA,221103.80,3945.0801673,N,10513.2752563,W,4,24,0.7,1762.175,M,-15.955,M,1.8,0000*43
  79864414, $GPGGA,221104.80,3945.0797275,N,10513.2759748,W,4,24,0.7,1762.216,M,-15.955,M,2.8,0000*43
  79865412, $GPGGA,221105.80,3945.0793366,N,10513.2767273,W,4,24,0.7,1762.225,M,-15.955,M,1.8,0000*46
  79866412, $GPGGA,221106.80,3945.0789676,N,10513.2774940,W,4,24,0.7,1762.293,M,-15.954,M,2.8,0000*4C
  79867412, $GPGGA,221107.80,3945.0785641,N,10513.2782163,W,4,24,0.7,1762.385,M,-15.954,M,1.8,0000*40
  79868413, $GPGGA,221108.80,3945.0781531,N,10513.2789448,W,4,24,0.7,1762.421,M,-15.954,M,2.8,0000*42
  79869411, $GPGGA,221109.80,3945.0777080,N,10513.2796616,W,4,24,0.7,1762.434,M,-15.954,M,3.8,0000*47
  79870412, $GPGGA,221110.80,3945.0772676,N,10513.2803962,W,4,24,0.7,1762.463,M,-15.954,M,4.8,0000*4F
  79871413, $GPGGA,221111.80,3945.0768703,N,10513.2811412,W,4,24,0.7,1762.576,M,-15.954,M,1.8,0000*4F
  79872412, $GPGGA,221112.80,3945.0765166,N,10513.2819229,W,4,24,0.7,1762.615,M,-15.954,M,2.8,0000*47
  79873413, $GPGGA,221113.80,3945.0761456,N,10513.2826913,W,4,24,0.7,1762.673,M,-15.954,M,1.8,0000*49
  79874414, $GPGGA,221114.80,3945.0757664,N,10513.2834175,W,4,24,0.7,1762.657,M,-15.954,M,2.8,0000*46
  79875412, $GPGGA,221115.80,3945.0752654,N,10513.2841198,W,4,24,0.7,1762.722,M,-15.954,M,1.8,0000*40
  79876412, $GPGGA,221116.80,3945.0748681,N,10513.2848396,W,4,24,0.7,1762.828,M,-15.954,M,2.8,0000*43
  79877413, $GPGGA,221117.80,3945.0744570,N,10513.2856092,W,4,24,0.7,1762.855,M,-15.954,M,1.8,0000*42
  79878412, $GPGGA,221118.80,3945.0740506,N,10513.2863789,W,4,24,0.7,1762.857,M,-15.954,M,2.8,0000*42
  79879412, $GPGGA,221119.80,3945.0736652,N,10513.2871261,W,4,24,0.7,1762.912,M,-15.954,M,1.8,0000*43
  79880413, $GPGGA,221120.80,3945.0732332,N,10513.2878967,W,4,24,0.7,1762.988,M,-15.954,M,2.8,0000*4A
  79881413, $GPGGA,221121.80,3945.0727855,N,10513.2886886,W,4,24,0.7,1762.990,M,-15.954,M,3.8,0000*42
  79882413, $GPGGA,221122.80,3945.0723602,N,10513.2895160,W,4,24,0.7,1763.010,M,-15.954,M,4.8,0000*4D
  79883413, $GPGGA,221123.80,3945.0719628,N,10513.2903265,W,4,24,0.7,1762.988,M,-15.953,M,1.8,0000*4E
  79884413, $GPGGA,221124.80,3945.0715235,N,10513.2911003,W,4,24,0.7,1763.001,M,-15.953,M,2.8,0000*46
  79885411, $GPGGA,221125.80,3945.0710961,N,10513.2918948,W,4,24,0.7,1763.041,M,-15.953,M,1.8,0000*40
  79886413, $GPGGA,221126.80,3945.0706712,N,10513.2926921,W,4,24,0.7,1763.122,M,-15.953,M,2.8,0000*4B
  79887412, $GPGGA,221127.80,3945.0702701,N,10513.2934535,W,4,24,0.7,1763.162,M,-15.953,M,1.8,0000*41
  79888413, $GPGGA,221128.80,3945.0698648,N,10513.2942211,W,4,24,0.7,1763.164,M,-15.953,M,2.8,0000*45
  79889413, $GPGGA,221129.80,3945.0694086,N,10513.2949421,W,4,24,0.7,1763.139,M,-15.953,M,1.8,0000*49
  79890413, $GPGGA,221130.80,3945.0689558,N,10513.2956961,W,4,24,0.7,1763.194,M,-15.953,M,2.8,0000*48
  79891413, $GPGGA,221131.80,3945.0685285,N,10513.2964868,W,4,24,0.7,1763.260,M,-15.953,M,1.8,0000*40
  79892414, $GPGGA,221132.80,3945.0681293,N,10513.2972952,W,4,24,0.7,1763.307,M,-15.953,M,2.8,0000*4C
  79893412, $GPGGA,221133.80,3945.0677241,N,10513.2980695,W,4,24,0.7,1763.364,M,-15.953,M,1.8,0000*44
  79894413, $GPGGA,221134.80,3945.0673036,N,10513.2987950,W,4,24,0.7,1763.345,M,-15.953,M,2.8,0000*44
  79895413, $GPGGA,221135.80,3945.0669233,N,10513.2995454,W,4,24,0.7,1763.348,M,-15.953,M,1.8,0000*4D
  79896412, $GPGGA,221136.80,3945.0664606,N,10513.3003285,W,4,24,0.7,1763.401,M,-15.953,M,2.8,0000*45
  79897412, $GPGGA,221137.80,3945.0660290,N,10513.3010945,W,4,24,0.7,1763.443,M,-15.953,M,1.8,0000*4B
  79898413, $GPGGA,221138.80,3945.0656272,N,10513.3018707,W,4,24,0.7,1763.453,M,-15.953,M,2.8,0000*4F
  79899413, $GPGGA,221139.80,3945.0651844,N,10513.3026007,W,4,24,0.7,1763.449,M,-15.953,M,1.8,0000*44
  79900413, $GPGGA,221140.80,3945.0647357,N,10513.3033471,W,4,24,0.7,1763.447,M,-15.952,M,2.8,0000*49
  79901413, $GPGGA,221141.80,3945.0643578,N,10513.3041472,W,4,24,0.7,1763.535,M,-15.952,M,1.8,0000*46
  79902412, $GPGGA,221142.80,3945.0639535,N,10513.3049356,W,4,24,0.7,1763.610,M,-15.952,M,2.8,0000*4F
  79903413, $GPGGA,221143.80,3945.0635021,N,10513.3057373,W,4,24,0.7,1763.635,M,-15.952,M,1.8,0000*4E
  79904413, $GPGGA,221144.80,3945.0631258,N,10513.3065216,W,4,24,0.7,1763.650,M,-15.952,M,2.8,0000*42
  79905412, $GPGGA,221145.80,3945.0627124,N,10513.3073188,W,4,24,0.7,1763.698,M,-15.952,M,1.8,0000*48
  79906413, $GPGGA,221146.80,3945.0622659,N,10513.3080871,W,4,24,0.7,1763.752,M,-15.952,M,2.8,0000*44
  79907413, $GPGGA,221147.80,3945.0618426,N,10513.3088511,W,4,24,0.7,1763.799,M,-15.952,M,1.8,0000*41
  79908415, $GPGGA,221148.80,3945.0614090,N,10513.3096107,W,4,23,0.7,1763.775,M,-15.952,M,2.8,0000*41
  79909416, $GPGGA,221149.80,3945.0609711,N,10513.3103495,W,4,24,0.7,1763.772,M,-15.952,M,1.8,0000*42
  79910415, $GPGGA,221150.80,3945.0605528,N,10513.3111108,W,4,23,0.7,1763.805,M,-15.952,M,2.8,0000*47
  79911412, $GPGGA,221151.80,3945.0600938,N,10513.3117949,W,4,23,0.7,1763.834,M,-15.952,M,1.8,0000*44
  79912412, $GPGGA,221152.80,3945.0596966,N,10513.3125745,W,4,24,0.7,1763.809,M,-15.952,M,2.8,0000*49
  79913413, $GPGGA,221153.80,3945.0593296,N,10513.3133519,W,4,22,0.7,1763.812,M,-15.952,M,1.8,0000*4A
  79914411, $GPGGA,221154.80,3945.0589574,N,10513.3140714,W,4,22,0.7,1763.840,M,-15.952,M,2.8,0000*42
  79915412, $GPGGA,221155.80,3945.0585755,N,10513.3147400,W,4,23,0.7,1763.887,M,-15.952,M,1.8,0000*46
  79916412, $GPGGA,221156.80,3945.0582612,N,10513.3153361,W,4,21,0.7,1763.913,M,-15.952,M,2.8,0000*48
  79917411, $GPGGA,221157.80,3945.0581521,N,10513.3155713,W,4,21,0.7,1763.942,M,-15.952,M,3.8,0000*4B
  79918412, $GPGGA,221158.80,3945.0581548,N,10513.3156218,W,4,22,0.7,1763.933,M,-15.952,M,4.8,0000*44
  79919411, $GPGGA,221159.80,3945.0584354,N,10513.3154572,W,4,23,0.7,1763.885,M,-15.952,M,1.8,0000*4A
  79920411, $GPGGA,221200.80,3945.0587060,N,10513.3151386,W,4,21,0.7,1763.893,M,-15.952,M,2.8,0000*4C
  79921412, $GPGGA,221201.80,3945.0590336,N,10513.3146723,W,4,22,0.7,1763.838,M,-15.952,M,1.8,0000*47
  79922412, $GPGGA,221202.80,3945.0593836,N,10513.3141131,W,4,24,0.6,1763.846,M,-15.952,M,2.8,0000*43
  79923412, $GPGGA,221203.80,3945.0597025,N,10513.3134437,W,4,24,0.6,1763.824,M,-15.952,M,1.8,0000*4A
  79924412, $GPGGA,221204.80,3945.0600299,N,10513.3128231,W,4,24,0.6,1763.810,M,-15.952,M,2.8,0000*4C
  79925413, $GPGGA,221205.80,3945.0603248,N,10513.3122304,W,4,24,0.6,1763.850,M,-15.952,M,1.8,0000*48
  79926412, $GPGGA,221206.80,3945.0606939,N,10513.3116313,W,4,24,0.6,1763.859,M,-15.952,M,2.8,0000*48
  79927413, $GPGGA,221207.80,3945.0610529,N,10513.3109825,W,4,24,0.6,1763.808,M,-15.952,M,1.8,0000*44
  79928413, $GPGGA,221208.80,3945.0614343,N,10513.3103271,W,4,25,0.6,1763.765,M,-15.952,M,2.8,0000*42
  79929412, $GPGGA,221209.80,3945.0618378,N,10513.3096751,W,4,24,0.6,1763.764,M,-15.952,M,1.8,0000*4E
  79930413, $GPGGA,221210.80,3945.0621932,N,10513.3089772,W,4,24,0.6,1763.758,M,-15.952,M,2.8,0000*4B
  79931413, $GPGGA,221211.80,3945.0625638,N,10513.3082855,W,4,25,0.6,1763.695,M,-15.952,M,1.8,0000*48
  79932413, $GPGGA,221212.80,3945.0629200,N,10513.3075964,W,4,25,0.6,1763.641,M,-15.952,M,2.8,0000*49
  79933414, $GPGGA,221213.80,3945.0633185,N,10513.3068892,W,4,25,0.6,1763.654,M,-15.952,M,1.8,0000*4E
  79934414, $GPGGA,221214.80,3945.0637009,N,10513.3061405,W,4,25,0.6,1763.656,M,-15.952,M,2.8,0000*42
  79935413, $GPGGA,221215.80,3945.0641204,N,10513.3054284,W,4,25,0.6,1763.597,M,-15.952,M,1.8,0000*49
  79936413, $GPGGA,221216.80,3945.0645473,N,10513.3047145,W,4,25,0.6,1763.526,M,-15.952,M,2.8,0000*4D
  79937413, $GPGGA,221217.80,3945.0649329,N,10513.3039605,W,4,25,0.6,1763.455,M,-15.952,M,1.8,0000*44
  79938412, $GPGGA,221218.80,3945.0653147,N,10513.3032251,W,4,25,0.6,1763.465,M,-15.952,M,2.8,0000*44
  79939412, $GPGGA,221219.80,3945.0656952,N,10513.3025281,W,4,25,0.6,1763.470,M,-15.953,M,1.8,0000*41
  79940413, $GPGGA,221220.80,3945.0660994,N,10513.3017933,W,4,25,0.6,1763.438,M,-15.953,M,2.8,0000*48
  79941413, $GPGGA,221221.80,3945.0665198,N,10513.3010577,W,4,24,0.7,1763.388,M,-15.953,M,1.8,0000*4C
  79942413, $GPGGA,221222.80,3945.0669364,N,10513.3003511,W,4,24,0.6,1763.324,M,-15.953,M,2.8,0000*44
  79943413, $GPGGA,221223.80,3945.0673636,N,10513.2996498,W,4,24,0.7,1763.310,M,-15.953,M,1.8,0000*4D
  79944411, $GPGGA,221224.80,3945.0677425,N,10513.2989228,W,4,24,0.7,1763.334,M,-15.953,M,2.8,0000*48
  79945413, $GPGGA,221225.80,3945.0681214,N,10513.2981895,W,4,25,0.6,1763.348,M,-15.953,M,1.8,0000*48
  79946413, $GPGGA,221226.80,3945.0685538,N,10513.2974644,W,4,25,0.6,1763.251,M,-15.953,M,2.8,0000*44
  79947412, $GPGGA,221227.80,3945.0689160,N,10513.2966813,W,4,25,0.6,1763.208,M,-15.953,M,1.8,0000*40
  79948413, $GPGGA,221228.80,3945.0693149,N,10513.2959516,W,4,25,0.6,1763.165,M,-15.953,M,2.8,0000*40
  79949413, $GPGGA,221229.80,3945.0697390,N,10513.2952471,W,4,25,0.6,1763.140,M,-15.953,M,1.8,0000*4C
  79950412, $GPGGA,221230.80,3945.0701741,N,10513.2945133,W,4,25,0.6,1763.187,M,-15.953,M,2.8,0000*4F
  79951414, $GPGGA,221231.80,3945.0705757,N,10513.2937495,W,4,25,0.6,1763.148,M,-15.953,M,1.8,0000*41
  79952413, $GPGGA,221232.80,3945.0709795,N,10513.2929653,W,4,24,0.7,1763.060,M,-15.953,M,2.8,0000*4F
  79953412, $GPGGA,221233.80,3945.0713706,N,10513.2922066,W,4,24,0.7,1763.005,M,-15.953,M,1.8,0000*44
  79954413, $GPGGA,221234.80,3945.0717748,N,10513.2914461,W,4,24,0.6,1762.980,M,-15.953,M,2.8,0000*4C
  79955413, $GPGGA,221235.80,3945.0721464,N,10513.2906871,W,4,24,0.6,1763.002,M,-15.953,M,1.8,0000*4A
  79956413, $GPGGA,221236.80,3945.0725336,N,10513.2899375,W,4,24,0.6,1763.018,M,-15.954,M,2.8,0000*4A
  79957410, $GPGGA,221237.80,3945.0729832,N,10513.2892042,W,4,24,0.7,1762.988,M,-15.954,M,1.8,0000*47
  79958413, $GPGGA,221238.80,3945.0734377,N,10513.2884281,W,4,24,0.7,1762.968,M,-15.954,M,2.8,0000*49
  79959413, $GPGGA,221239.80,3945.0738136,N,10513.2876628,W,4,24,0.7,1762.919,M,-15.954,M,1.8,0000*4C
  79960411, $GPGGA,221240.80,3945.0742300,N,10513.2869270,W,4,24,0.7,1762.872,M,-15.954,M,2.8,0000*40
  79961412, $GPGGA,221241.80,3945.0746158,N,10513.2861400,W,4,24,0.6,1762.828,M,-15.954,M,1.8,0000*4E
  79962412, $GPGGA,221242.80,3945.0750538,N,10513.2853663,W,4,25,0.6,1762.798,M,-15.954,M,2.8,0000*48
  79963412, $GPGGA,221243.80,3945.0754951,N,10513.2846038,W,4,25,0.6,1762.718,M,-15.954,M,1.8,0000*49
  79964412, $GPGGA,221244.80,3945.0758942,N,10513.2838303,W,4,25,0.6,1762.659,M,-15.954,M,2.8,0000*45
  79965413, $GPGGA,221245.80,3945.0763108,N,10513.2830809,W,4,25,0.6,1762.623,M,-15.954,M,1.8,0000*4D
  79966412, $GPGGA,221246.80,3945.0767240,N,10513.2823299,W,4,25,0.6,1762.557,M,-15.954,M,2.8,0000*47
  79967412, $GPGGA,221247.80,3945.0771487,N,10513.2815704,W,4,25,0.6,1762.509,M,-15.954,M,1.8,0000*40
  79968412, $GPGGA,221248.80,3945.0775760,N,10513.2807775,W,4,24,0.7,1762.475,M,-15.954,M,2.8,0000*4D
  79969411, $GPGGA,221249.80,3945.0779884,N,10513.2800015,W,4,25,0.7,1762.456,M,-15.954,M,1.8,0000*40
  79970413, $GPGGA,221250.80,3945.0783935,N,10513.2792344,W,4,25,0.6,1762.417,M,-15.954,M,2.8,0000*42
  79971411, $GPGGA,221251.80,3945.0787814,N,10513.2784391,W,4,24,0.7,1762.354,M,-15.954,M,1.8,0000*49
  79972412, $GPGGA,221252.80,3945.0791735,N,10513.2775823,W,4,25,0.6,1762.251,M,-15.954,M,2.8,0000*4A
  79973414, $GPGGA,221253.80,3945.0796327,N,10513.2767578,W,4,24,0.7,1762.173,M,-15.955,M,1.8,0000*4A
  79974413, $GPGGA,221254.80,3945.0801268,N,10513.2759790,W,4,24,0.7,1762.104,M,-15.955,M,2.8,0000*4C
  79975412, $GPGGA,221255.80,3945.0805671,N,10513.2751817,W,4,24,0.7,1762.119,M,-15.955,M,1.8,0000*42
  79976412, $GPGGA,221256.80,3945.0810124,N,10513.2744274,W,4,24,0.7,1762.078,M,-15.955,M,2.8,0000*4C
  79977411, $GPGGA,221257.80,3945.0814637,N,10513.2736232,W,4,24,0.7,1762.042,M,-15.955,M,1.8,0000*41
  79978412, $GPGGA,221258.80,3945.0818888,N,10513.2728150,W,4,24,0.6,1761.982,M,-15.955,M,2.8,0000*44
  79979413, $GPGGA,221259.80,3945.0822955,N,10513.2719982,W,4,24,0.6,1761.909,M,-15.955,M,1.8,0000*48
  79980413, $GPGGA,221300.80,3945.0827723,N,10513.2712144,W,4,25,0.6,1761.848,M,-15.955,M,2.8,0000*40
  79981413, $GPGGA,221301.80,3945.0831575,N,10513.2704102,W,4,25,0.6,1761.807,M,-15.955,M,1.8,0000*4A
  79982413, $GPGGA,221302.80,3945.0835276,N,10513.2695873,W,4,25,0.6,1761.773,M,-15.955,M,2.8,0000*40
  79983411, $GPGGA,221303.80,3945.0839686,N,10513.2687805,W,4,25,0.6,1761.751,M,-15.955,M,1.8,0000*47
  79984412, $GPGGA,221304.80,3945.0844032,N,10513.2679810,W,4,25,0.6,1761.729,M,-15.955,M,2.8,0000*4A
  79985415, $GPGGA,221305.80,3945.0848713,N,10513.2671644,W,4,24,0.6,1761.674,M,-15.955,M,1.8,0000*4F
  79986416, $GPGGA,221306.80,3945.0853097,N,10513.2663974,W,4,24,0.7,1761.643,M,-15.955,M,2.8,0000*44
  79987412, $GPGGA,221307.80,3945.0857471,N,10513.2656443,W,4,25,0.6,1761.555,M,-15.955,M,1.8,0000*45
  79988415, $GPGGA,221308.80,3945.0861700,N,10513.2648934,W,4,25,0.6,1761.509,M,-15.955,M,2.8,0000*42
  79989415, $GPGGA,221309.80,3945.0865432,N,10513.2640911,W,4,25,0.6,1761.502,M,-15.955,M,1.8,0000*42
  79990416, $GPGGA,221310.80,3945.0869874,N,10513.2633324,W,4,25,0.6,1761.467,M,-15.956,M,2.8,0000*42
  79991413, $GPGGA,221311.80,3945.0874303,N,10513.2625927,W,4,25,0.6,1761.424,M,-15.956,M,1.8,0000*4E
  79992415, $GPGGA,221312.80,3945.0878568,N,10513.2618792,W,4,25,0.6,1761.371,M,-15.956,M,2.8,0000*40
  79993413, $GPGGA,221313.80,3945.0882733,N,10513.2611850,W,4,25,0.6,1761.283,M,-15.956,M,1.8,0000*4F
  79994415, $GPGGA,221314.80,3945.0886399,N,10513.2605050,W,4,25,0.6,1761.258,M,-15.956,M,2.8,0000*40
  79995413, $GPGGA,221315.80,3945.0888185,N,10513.2600563,W,4,25,0.6,1761.268,M,-15.956,M,1.8,0000*40
  79996415, $GPGGA,221316.80,3945.0889067,N,10513.2600188,W,4,24,0.6,1761.269,M,-15.956,M,2.8,0000*4D