
  80525412, $GPGGA,222205.80,3945.0888435,N,10513.2597033,W,4,22,0.8,1761.459,M,-15.956,M,1.8,0000*4D
  80526411, $GPGGA,222206.80,3945.0888352,N,10513.2596954,W,4,23,0.7,1761.458,M,-15.956,M,2.8,0000*4D
  80527410, $GPGGA,222207.80,3945.0888304,N,10513.2596984,W,4,23,0.7,1761.459,M,-15.956,M,1.8,0000*40
  80528412, $GPGGA,222208.80,3945.0888404,N,10513.2597562,W,4,22,0.8,1761.462,M,-15.956,M,2.8,0000*48
  80529412, $GPGGA,222209.80,3945.0888543,N,10513.2597796,W,4,22,0.8,1761.450,M,-15.956,M,1.8,0000*40
  80530413, $GPGGA,222210.80,3945.0888574,N,10513.2597581,W,4,22,0.8,1761.439,M,-15.956,M,2.8,0000*44
  80531412, $GPGGA,222211.80,3945.0888491,N,10513.2597359,W,4,21,0.8,1761.449,M,-15.956,M,1.8,0000*4B
  80532411, $GPGGA,222212.80,3945.0888542,N,10513.2597216,W,4,21,0.8,1761.444,M,-15.956,M,2.8,0000*43
  80533412, $GPGGA,222213.80,3945.0888638,N,10513.2597230,W,4,21,0.8,1761.460,M,-15.956,M,1.8,0000*4D
  80534412, $GPGGA,222214.80,3945.0888604,N,10513.2597138,W,4,21,0.8,1761.455,M,-15.956,M,2.8,0000*4B
  80535413, $GPGGA,222215.80,3945.0888616,N,10513.2597112,W,4,22,0.7,1761.456,M,-15.956,M,1.8,0000*4D
  80536411, $GPGGA,222216.80,3945.0888212,N,10513.2598451,W,4,21,0.9,1761.470,M,-15.956,M,2.8,0000*49
  80537409, $GPGGA,222217.80,3945.0885431,N,10513.2603079,W,4,21,0.9,1761.435,M,-15.956,M,1.8,0000*4F
  80538410, $GPGGA,222218.80,3945.0882577,N,10513.2609044,W,4,23,0.7,1761.507,M,-15.956,M,2.8,0000*4F
  80539409, $GPGGA,222219.80,3945.0880482,N,10513.2615722,W,4,22,0.8,1761.542,M,-15.956,M,1.8,0000*41
  80540410, $GPGGA,222220.80,3945.0877216,N,10513.2622192,W,4,22,0.8,1761.545,M,-15.956,M,2.8,0000*45
  80541412, $GPGGA,222221.80,3945.0873566,N,10513.2626857,W,4,23,0.7,1761.610,M,-15.956,M,1.8,0000*4A
  80542412, $GPGGA,222222.80,3945.0872706,N,10513.2628865,W,4,23,0.7,1761.622,M,-15.956,M,2.8,0000*41
  80543411, $GPGGA,222223.80,3945.0872408,N,10513.2630191,W,4,23,0.7,1761.597,M,-15.956,M,1.8,0000*48
  80544411, $GPGGA,222224.80,3945.0868994,N,10513.2635378,W,4,23,0.7,1761.615,M,-15.956,M,2.8,0000*46
  80545410, $GPGGA,222225.80,3945.0865866,N,10513.2641260,W,4,23,0.7,1761.696,M,-15.955,M,1.8,0000*46
  80546410, $GPGGA,222226.80,3945.0862867,N,10513.2647015,W,4,22,0.7,1761.686,M,-15.955,M,2.8,0000*46
  80547410, $GPGGA,222227.80,3945.0861344,N,10513.2648824,W,4,23,0.8,1761.767,M,-15.955,M,1.8,0000*48
  80548414, $GPGGA,222228.80,3945.0861508,N,10513.2649664,W,4,23,0.8,1761.774,M,-15.955,M,2.8,0000*43
  80549410, $GPGGA,222229.80,3945.0858882,N,10513.2653682,W,4,22,0.8,1761.806,M,-15.955,M,1.8,0000*4C
  80550408, $GPGGA,222230.80,3945.0855425,N,10513.2659827,W,4,22,0.8,1761.763,M,-15.955,M,2.8,0000*4C
  80551410, $GPGGA,222231.80,3945.0852079,N,10513.2665767,W,4,22,0.8,1761.836,M,-15.955,M,1.8,0000*4F
  80552409, $GPGGA,222232.80,3945.0849149,N,10513.2669184,W,4,22,0.8,1761.838,M,-15.955,M,2.8,0000*4E
  80553410, $GPGGA,222233.80,3945.0849424,N,10513.2670308,W,4,22,0.8,1761.827,M,-15.955,M,1.8,0000*42
  80554410, $GPGGA,222234.80,3945.0846330,N,10513.2674865,W,4,22,0.8,1761.815,M,-15.955,M,2.8,0000*4E
  80555408, $GPGGA,222235.80,3945.0842924,N,10513.2681328,W,4,21,0.8,1761.836,M,-15.955,M,1.8,0000*4D
  80556410, $GPGGA,222236.80,3945.0841362,N,10513.2686683,W,4,22,0.8,1761.919,M,-15.955,M,2.8,0000*4A
  80557408, $GPGGA,222237.80,3945.0840915,N,10513.2687442,W,4,21,0.8,1761.927,M,-15.955,M,1.8,0000*43
  80558409, $GPGGA,222238.80,3945.0839732,N,10513.2689646,W,4,22,0.8,1761.876,M,-15.955,M,2.8,0000*44
  80559411, $GPGGA,222239.80,3945.0836500,N,10513.2695878,W,4,22,0.8,1761.989,M,-15.955,M,1.8,0000*45
  80560409, $GPGGA,222240.80,3945.0832348,N,10513.2700618,W,4,22,0.8,1762.022,M,-15.955,M,2.8,0000*48
  80561409, $GPGGA,222241.80,3945.0830557,N,10513.2704164,W,4,21,0.8,1762.060,M,-15.955,M,1.8,0000*4D
  80562409, $GPGGA,222242.80,3945.0830510,N,10513.2704545,W,4,21,0.8,1762.059,M,-15.955,M,2.8,0000*43
  80563409, $GPGGA,222243.80,3945.0828609,N,10513.2707917,W,4,21,0.8,1762.045,M,-15.955,M,1.8,0000*46
  80564408, $GPGGA,222244.80,3945.0825380,N,10513.2714357,W,4,22,0.8,1762.105,M,-15.955,M,2.8,0000*41
  80565407, $GPGGA,222245.80,3945.0821561,N,10513.2721217,W,4,21,0.8,1762.131,M,-15.955,M,1.8,0000*49
  80566407, $GPGGA,222246.80,3945.0818474,N,10513.2726448,W,4,21,0.8,1762.180,M,-15.955,M,2.8,0000*47
  80567408, $GPGGA,222247.80,3945.0817660,N,10513.2730346,W,4,22,0.8,1762.190,M,-15.955,M,1.8,0000*41
  80568407, $GPGGA,222248.80,3945.0815683,N,10513.2732039,W,4,22,0.8,1762.203,M,-15.955,M,2.8,0000*42
  80569409, $GPGGA,222249.80,3945.0817004,N,10513.2731195,W,4,21,0.8,1762.180,M,-15.955,M,1.8,0000*44
  80570409, $GPGGA,222250.80,3945.0815693,N,10513.2732432,W,4,21,0.8,1762.183,M,-15.955,M,2.8,0000*4D
  80571409, $GPGGA,222251.80,3945.0813148,N,10513.2738328,W,4,21,0.8,1762.200,M,-15.955,M,1.8,0000*46
  80572408, $GPGGA,222252.80,3945.0809710,N,10513.2744109,W,4,21,0.8,1762.262,M,-15.955,M,2.8,0000*48
  80573408, $GPGGA,222253.80,3945.0807220,N,10513.2747541,W,4,22,0.8,1762.288,M,-15.955,M,1.8,0000*4E
  80574409, $GPGGA,222254.80,3945.0806785,N,10513.2749792,W,4,21,0.8,1762.297,M,-15.955,M,2.8,0000*4E
  80575410, $GPGGA,222255.80,3945.0803753,N,10513.2755522,W,4,21,0.8,1762.264,M,-15.955,M,1.8,0000*4A
  80576408, $GPGGA,222256.80,3945.0800804,N,10513.2760935,W,4,22,0.8,1762.359,M,-15.955,M,2.8,0000*44
  80577409, $GPGGA,222257.80,3945.0799833,N,10513.2764585,W,4,22,0.8,1762.372,M,-15.955,M,1.8,0000*47
  80578408, $GPGGA,222258.80,3945.0798289,N,10513.2766997,W,4,22,0.8,1762.341,M,-15.955,M,2.8,0000*4C
  80579411, $GPGGA,222259.80,3945.0794812,N,10513.2772012,W,4,22,0.8,1762.421,M,-15.954,M,1.8,0000*4B
  80580411, $GPGGA,222300.80,3945.0790615,N,10513.2774356,W,4,22,0.8,1762.454,M,-15.954,M,2.8,0000*4F
  80581410, $GPGGA,222301.80,3945.0789389,N,10513.2777634,W,4,21,0.8,1762.496,M,-15.954,M,1.8,0000*4A
  80582409, $GPGGA,222302.80,3945.0786922,N,10513.2781820,W,4,22,0.8,1762.537,M,-15.954,M,2.8,0000*45
  80583410, $GPGGA,222303.80,3945.0784347,N,10513.2787275,W,4,21,0.8,1762.536,M,-15.954,M,1.8,0000*42
  80584411, $GPGGA,222304.80,3945.0781949,N,10513.2790177,W,4,21,0.8,1762.590,M,-15.954,M,2.8,0000*4C
  80585410, $GPGGA,222305.80,3945.0781687,N,10513.2791278,W,4,22,0.8,1762.582,M,-15.954,M,1.8,0000*4E
  80586409, $GPGGA,222306.80,3945.0778748,N,10513.2795007,W,4,21,0.8,1762.609,M,-15.954,M,2.8,0000*47
  80587409, $GPGGA,222307.80,3945.0776155,N,10513.2800280,W,4,21,0.8,1762.610,M,-15.954,M,1.8,0000*47
  80588410, $GPGGA,222308.80,3945.0774590,N,10513.2803244,W,4,21,0.8,1762.659,M,-15.954,M,2.8,0000*42
  80589410, $GPGGA,222309.80,3945.0773501,N,10513.2805344,W,4,21,0.8,1762.651,M,-15.954,M,1.8,0000*40
  80590411, $GPGGA,222310.80,3945.0770903,N,10513.2810374,W,4,21,0.8,1762.711,M,-15.954,M,2.8,0000*44
  80591410, $GPGGA,222311.80,3945.0767932,N,10513.2814584,W,4,21,0.8,1762.748,M,-15.954,M,1.8,0000*43
  80592412, $GPGGA,222312.80,3945.0766813,N,10513.2817963,W,4,22,0.8,1762.770,M,-15.954,M,2.8,0000*4E
  80593412, $GPGGA,222313.80,3945.0765751,N,10513.2819865,W,4,23,0.7,1762.739,M,-15.954,M,1.8,0000*4C
  80594411, $GPGGA,222314.80,3945.0762979,N,10513.2824727,W,4,22,0.8,1762.804,M,-15.954,M,2.8,0000*43
  80595411, $GPGGA,222315.80,3945.0760297,N,10513.2828248,W,4,22,0.8,1762.841,M,-15.954,M,1.8,0000*49
  80596409, $GPGGA,222316.80,3945.0760096,N,10513.2830104,W,4,22,0.8,1762.846,M,-15.954,M,2.8,0000*4F
  80597411, $GPGGA,222317.80,3945.0757915,N,10513.2832949,W,4,22,0.8,1762.849,M,-15.954,M,1.8,0000*47
  80598410, $GPGGA,222318.80,3945.0755529,N,10513.2838481,W,4,22,0.8,1762.859,M,-15.954,M,2.8,0000*48
  80599410, $GPGGA,222319.80,3945.0753318,N,10513.2842189,W,4,22,0.8,1762.916,M,-15.954,M,1.8,0000*42
  80600410, $GPGGA,222320.80,3945.0752776,N,10513.2843686,W,4,21,0.8,1762.932,M,-15.954,M,2.8,0000*4A
  80601410, $GPGGA,222321.80,3945.0750305,N,10513.2847348,W,4,22,0.8,1762.965,M,-15.954,M,1.8,0000*48
  80602411, $GPGGA,222322.80,3945.0747662,N,10513.2852921,W,4,22,0.8,1762.985,M,-15.954,M,2.8,0000*45
  80603410, $GPGGA,222323.80,3945.0744646,N,10513.2858303,W,4,21,0.8,1763.036,M,-15.954,M,1.8,0000*41
  80604411, $GPGGA,222324.80,3945.0741816,N,10513.2861864,W,4,21,0.8,1763.067,M,-15.954,M,2.8,0000*4F
  80605411, $GPGGA,222325.80,3945.0741596,N,10513.2863461,W,4,21,0.8,1763.062,M,-15.954,M,1.8,0000*46
  80606410, $GPGGA,222326.80,3945.0738763,N,10513.2867667,W,4,21,0.8,1763.092,M,-15.954,M,2.8,0000*4F
  80607415, $GPGGA,222327.80,3945.0735612,N,10513.2873502,W,4,21,0.8,1763.104,M,-15.954,M,1.8,0000*4C
  80608412, $GPGGA,222328.80,3945.0733210,N,10513.2879103,W,4,21,0.8,1763.158,M,-15.954,M,2.8,0000*46
  80609411, $GPGGA,222329.80,3945.0731045,N,10513.2882277,W,4,22,0.8,1763.160,M,-15.954,M,1.8,0000*48
  80610412, $GPGGA,222330.80,3945.0731059,N,10513.2883501,W,4,22,0.8,1763.153,M,-15.954,M,2.8,0000*49
  80611411, $GPGGA,222331.80,3945.0728050,N,10513.2887594,W,4,22,0.7,1763.145,M,-15.954,M,1.8,0000*4A
  80612409, $GPGGA,222332.80,3945.0725006,N,10513.2893012,W,4,21,0.8,1763.120,M,-15.954,M,2.8,0000*45
  80613411, $GPGGA,222333.80,3945.0724280,N,10513.2895422,W,4,22,0.7,1763.179,M,-15.954,M,1.8,0000*4B
  80614412, $GPGGA,222334.80,3945.0723619,N,10513.2897571,W,4,22,0.8,1763.148,M,-15.954,M,2.8,0000*44
  80615411, $GPGGA,222335.80,3945.0720535,N,10513.2903131,W,4,21,0.8,1763.187,M,-15.953,M,1.8,0000*43
  80616412, $GPGGA,222336.80,3945.0717198,N,10513.2908411,W,4,23,0.7,1763.207,M,-15.953,M,2.8,0000*4E
  80617411, $GPGGA,222337.80,3945.0714535,N,10513.2913150,W,4,22,0.8,1763.171,M,-15.953,M,1.8,0000*4A
  80618411, $GPGGA,222338.80,3945.0713883,N,10513.2915017,W,4,22,0.8,1763.211,M,-15.953,M,2.8,0000*40
  80619410, $GPGGA,222339.80,3945.0712322,N,10513.2917520,W,4,22,0.8,1763.159,M,-15.953,M,1.8,0000*4F
  80620412, $GPGGA,222340.80,3945.0709038,N,10513.2923055,W,4,23,0.8,1763.222,M,-15.953,M,2.8,0000*4E
  80621411, $GPGGA,222341.80,3945.0705700,N,10513.2928789,W,4,23,0.7,1763.242,M,-15.953,M,1.8,0000*48
  80622412, $GPGGA,222342.80,3945.0702822,N,10513.2933812,W,4,22,0.8,1763.305,M,-15.953,M,2.8,0000*4B
  80623411, $GPGGA,222343.80,3945.0701916,N,10513.2937212,W,4,22,0.8,1763.332,M,-15.953,M,1.8,0000*46
  80624412, $GPGGA,222344.80,3945.0701530,N,10513.2938166,W,4,23,0.7,1763.327,M,-15.953,M,2.8,0000*4F
  80625411, $GPGGA,222345.80,3945.0698539,N,10513.2941700,W,4,22,0.8,1763.353,M,-15.953,M,1.8,0000*40
  80626411, $GPGGA,222346.80,3945.0695684,N,10513.2947612,W,4,22,0.8,1763.304,M,-15.953,M,2.8,0000*4E
  80627411, $GPGGA,222347.80,3945.0693487,N,10513.2952852,W,4,22,0.8,1763.353,M,-15.953,M,1.8,0000*47
  80628412, $GPGGA,222348.80,3945.0692825,N,10513.2953700,W,4,21,0.8,1763.377,M,-15.953,M,2.8,0000*42
  80629411, $GPGGA,222349.80,3945.0692726,N,10513.2954197,W,4,22,0.8,1763.377,M,-15.953,M,1.8,0000*40
  80630411, $GPGGA,222350.80,3945.0692850,N,10513.2954356,W,4,23,0.7,1763.366,M,-15.953,M,2.8,0000*44
  80631410, $GPGGA,222351.80,3945.0690088,N,10513.2957574,W,4,22,0.8,1763.386,M,-15.953,M,1.8,0000*4C
  80632410, $GPGGA,222352.80,3945.0687385,N,10513.2963254,W,4,22,0.8,1763.373,M,-15.953,M,2.8,0000*4C
  80633411, $GPGGA,222353.80,3945.0685011,N,10513.2967432,W,4,21,0.8,1763.413,M,-15.953,M,1.8,0000*42
  80634411, $GPGGA,222354.80,3945.0684337,N,10513.2969149,W,4,21,0.8,1763.431,M,-15.953,M,2.8,0000*47
  80635411, $GPGGA,222355.80,3945.0681820,N,10513.2972341,W,4,22,0.7,1763.458,M,-15.953,M,1.8,0000*4E
  80636409, $GPGGA,222356.80,3945.0679766,N,10513.2977828,W,4,22,0.8,1763.477,M,-15.953,M,2.8,0000*47
  80637410, $GPGGA,222357.80,3945.0676739,N,10513.2982772,W,4,22,0.8,1763.475,M,-15.953,M,1.8,0000*48
  80638410, $GPGGA,222358.80,3945.0675941,N,10513.2985834,W,4,23,0.8,1763.523,M,-15.953,M,2.8,0000*4F
  80639410, $GPGGA,222359.80,3945.0675262,N,10513.2986839,W,4,23,0.8,1763.510,M,-15.953,M,1.8,0000*49
  80640411, $GPGGA,222400.80,3945.0672205,N,10513.2991257,W,4,23,0.8,1763.486,M,-15.953,M,2.8,0000*4D
  80641410, $GPGGA,222401.80,3945.0668443,N,10513.2996427,W,4,23,0.8,1763.471,M,-15.953,M,1.8,0000*4E
  80642410, $GPGGA,222402.80,3945.0666570,N,10513.3001883,W,4,22,0.8,1763.537,M,-15.953,M,2.8,0000*47
  80643410, $GPGGA,222403.80,3945.0665927,N,10513.3003209,W,4,24,0.8,1763.527,M,-15.953,M,1.8,0000*45
  80644410, $GPGGA,222404.80,3945.0663059,N,10513.3006497,W,4,23,0.7,1763.518,M,-15.953,M,2.8,0000*47
  80645409, $GPGGA,222405.80,3945.0660252,N,10513.3011710,W,4,24,0.7,1763.543,M,-15.953,M,1.8,0000*4C
  80646410, $GPGGA,222406.80,3945.0658616,N,10513.3016152,W,4,24,0.7,1763.622,M,-15.953,M,2.8,0000*40
  80647409, $GPGGA,222407.80,3945.0658058,N,10513.3017337,W,4,23,0.8,1763.624,M,-15.953,M,1.8,0000*40
  80648411, $GPGGA,222408.80,3945.0655477,N,10513.3020292,W,4,23,0.8,1763.641,M,-15.953,M,2.8,0000*41
  80649410, $GPGGA,222409.80,3945.0653180,N,10513.3025645,W,4,24,0.7,1763.603,M,-15.953,M,1.8,0000*4D
  80650409, $GPGGA,222410.80,3945.0651316,N,10513.3028297,W,4,22,0.8,1763.658,M,-15.953,M,2.8,0000*48
  80651411, $GPGGA,222411.80,3945.0650549,N,10513.3029672,W,4,24,0.7,1763.630,M,-15.952,M,1.8,0000*4F
  80652410, $GPGGA,222412.80,3945.0647552,N,10513.3034708,W,4,23,0.8,1763.601,M,-15.952,M,2.8,0000*49
  80653411, $GPGGA,222413.80,3945.0644250,N,10513.3039778,W,4,24,0.7,1763.655,M,-15.952,M,1.8,0000*4E
  80654413, $GPGGA,222414.80,3945.0643639,N,10513.3041146,W,4,23,0.8,1763.690,M,-15.952,M,2.8,0000*43
  80655411, $GPGGA,222415.80,3945.0642235,N,10513.3043222,W,4,22,0.8,1763.680,M,-15.952,M,1.8,0000*4B
  80656415, $GPGGA,222416.80,3945.0640265,N,10513.3048324,W,4,24,0.8,1763.740,M,-15.952,M,2.8,0000*4B
  80657411, $GPGGA,222417.80,3945.0637057,N,10513.3052896,W,4,24,0.8,1763.769,M,-15.952,M,1.8,0000*48
  80658412, $GPGGA,222418.80,3945.0635606,N,10513.3057331,W,4,24,0.8,1763.805,M,-15.952,M,2.8,0000*42
  80659410, $GPGGA,222419.80,3945.0633735,N,10513.3058645,W,4,24,0.8,1763.786,M,-15.952,M,1.8,0000*4A
  80660412, $GPGGA,222420.80,3945.0631435,N,10513.3063766,W,4,23,0.8,1763.821,M,-15.952,M,2.8,0000*4F
  80661412, $GPGGA,222421.80,3945.0628273,N,10513.3068965,W,4,24,0.8,1763.795,M,-15.952,M,1.8,0000*40
  80662412, $GPGGA,222422.80,3945.0625354,N,10513.3073201,W,4,23,0.8,1763.859,M,-15.952,M,2.8,0000*42
  80663412, $GPGGA,222423.80,3945.0624712,N,10513.3075592,W,4,24,0.8,1763.884,M,-15.952,M,1.8,0000*4B
  80664412, $GPGGA,222424.80,3945.0622106,N,10513.3078811,W,4,24,0.8,1763.892,M,-15.952,M,2.8,0000*46
  80665412, $GPGGA,222425.80,3945.0620536,N,10513.3084360,W,4,24,0.8,1763.918,M,-15.952,M,1.8,0000*4C
  80666411, $GPGGA,222426.80,3945.0617812,N,10513.3089588,W,4,24,0.8,1763.902,M,-15.952,M,2.8,0000*45
  80667413, $GPGGA,222427.80,3945.0617030,N,10513.3092313,W,4,24,0.8,1763.941,M,-15.952,M,1.8,0000*46
  80668412, $GPGGA,222428.80,3945.0615406,N,10513.3094598,W,4,24,0.8,1763.894,M,-15.952,M,2.8,0000*43
  80669413, $GPGGA,222429.80,3945.0613047,N,10513.3099872,W,4,24,0.8,1763.964,M,-15.952,M,1.8,0000*4C
  80670412, $GPGGA,222430.80,3945.0610061,N,10513.3104005,W,4,25,0.8,1763.961,M,-15.952,M,2.8,0000*49
  80671429, $GPGGA,222431.80,3945.0609205,N,10513.3106722,W,4,23,0.8,1763.965,M,-15.952,M,1.8,0000*41
  80672431, $GPGGA,222432.80,3945.0606890,N,10513.3108680,W,4,23,0.8,1763.956,M,-15.952,M,2.8,0000*4F
  80673433, $GPGGA,222433.80,3945.0604991,N,10513.3113276,W,4,23,0.8,1764.007,M,-15.952,M,1.8,0000*42
  80674431, $GPGGA,222434.80,3945.0602777,N,10513.3116089,W,4,23,0.8,1764.009,M,-15.952,M,2.8,0000*4F
  80675433, $GPGGA,222435.80,3945.0601421,N,10513.3119418,W,4,24,0.8,1763.958,M,-15.952,M,1.8,0000*40
  80676429, $GPGGA,222436.80,3945.0599131,N,10513.3124001,W,4,23,0.8,1763.978,M,-15.952,M,2.8,0000*41
  80677411, $GPGGA,222437.80,3945.0596888,N,10513.3127225,W,4,24,0.7,1763.981,M,-15.952,M,1.8,0000*4E
  80678412, $GPGGA,222438.80,3945.0595536,N,10513.3131122,W,4,21,0.8,1763.990,M,-15.952,M,2.8,0000*40
  80679412, $GPGGA,222439.80,3945.0592829,N,10513.3134190,W,4,22,0.7,1763.993,M,-15.952,M,1.8,0000*45
  80680412, $GPGGA,222440.80,3945.0591720,N,10513.3137965,W,4,22,0.8,1764.011,M,-15.952,M,2.8,0000*47
  80681411, $GPGGA,222441.80,3945.0589296,N,10513.3140313,W,4,23,0.8,1764.048,M,-15.952,M,1.8,0000*42
  80682411, $GPGGA,222442.80,3945.0588631,N,10513.3143943,W,4,24,0.7,1764.063,M,-15.952,M,2.8,0000*47
  80683412, $GPGGA,222443.80,3945.0586069,N,10513.3147470,W,4,21,0.7,1764.069,M,-15.952,M,1.8,0000*46
  80684412, $GPGGA,222444.80,3945.0583932,N,10513.3152025,W,4,21,0.7,1764.059,M,-15.952,M,2.8,0000*43
  80685410, $GPGGA,222445.80,3945.0580708,N,10513.3154742,W,4,23,0.7,1764.079,M,-15.952,M,1.8,0000*45
  80686410, $GPGGA,222446.80,3945.0580768,N,10513.3157366,W,4,22,0.7,1764.045,M,-15.952,M,2.8,0000*4C
  80687410, $GPGGA,222447.80,3945.0582187,N,10513.3160299,W,4,22,0.7,1764.031,M,-15.951,M,1.8,0000*4E
  80688410, $GPGGA,222448.80,3945.0583565,N,10513.3159498,W,4,19,0.8,1764.022,M,-15.952,M,2.8,0000*40
  80689410, $GPGGA,222449.80,3945.0585117,N,10513.3154872,W,4,24,0.7,1764.021,M,-15.952,M,1.8,0000*42
  80690412, $GPGGA,222450.80,3945.0587814,N,10513.3150452,W,4,24,0.7,1763.993,M,-15.952,M,2.8,0000*4C
  80691413, $GPGGA,222451.80,3945.0588889,N,10513.3148054,W,4,23,0.7,1764.013,M,-15.952,M,1.8,0000*4F
  80692409, $GPGGA,222452.80,3945.0591184,N,10513.3145547,W,4,23,0.7,1764.020,M,-15.952,M,2.8,0000*49
  80693410, $GPGGA,222453.80,3945.0592352,N,10513.3142204,W,4,23,0.7,1763.997,M,-15.952,M,1.8,0000*44
  80694411, $GPGGA,222454.80,3945.0594884,N,10513.3139163,W,4,23,0.7,1763.956,M,-15.952,M,2.8,0000*45
  80695410, $GPGGA,222455.80,3945.0596939,N,10513.3134700,W,4,24,0.7,1763.937,M,-15.952,M,1.8,0000*4C
  80696410, $GPGGA,222456.80,3945.0598639,N,10513.3130735,W,4,24,0.7,1763.981,M,-15.952,M,2.8,0000*42
  80697411, $GPGGA,222457.80,3945.0600869,N,10513.3128172,W,4,23,0.7,1763.960,M,-15.952,M,1.8,0000*4D
  80698411, $GPGGA,222458.80,3945.0602624,N,10513.3123619,W,4,24,0.7,1764.003,M,-15.952,M,2.8,0000*49
  80699411, $GPGGA,222459.80,3945.0605210,N,10513.3120210,W,4,24,0.7,1764.003,M,-15.952,M,1.8,0000*41
  80700412, $GPGGA,222500.80,3945.0606737,N,10513.3115815,W,4,24,0.7,1763.992,M,-15.952,M,2.8,0000*43
  80701411, $GPGGA,222501.80,3945.0609595,N,10513.3111829,W,4,24,0.7,1763.954,M,-15.952,M,1.8,0000*45
  80702411, $GPGGA,222502.80,3945.0611693,N,10513.3108079,W,4,25,0.7,1763.916,M,-15.952,M,2.8,0000*4B
  80703412, $GPGGA,222503.80,3945.0613805,N,10513.3103607,W,4,25,0.7,1763.957,M,-15.952,M,1.8,0000*4B
  80704411, $GPGGA,222504.80,3945.0616707,N,10513.3099812,W,4,24,0.7,1763.948,M,-15.952,M,2.8,0000*40
  80705412, $GPGGA,222505.80,3945.0618175,N,10513.3095789,W,4,24,0.7,1763.936,M,-15.952,M,1.8,0000*47
  80706412, $GPGGA,222506.80,3945.0620756,N,10513.3092488,W,4,24,0.7,1763.920,M,-15.952,M,2.8,0000*49
  80707411, $GPGGA,222507.80,3945.0622532,N,10513.3087912,W,4,24,0.7,1763.886,M,-15.952,M,1.8,0000*4E
  80708411, $GPGGA,222508.80,3945.0624091,N,10513.3083610,W,4,24,0.7,1763.891,M,-15.952,M,2.8,0000*47
  80709412, $GPGGA,222509.80,3945.0626549,N,10513.3080928,W,4,24,0.7,1763.883,M,-15.952,M,1.8,0000*43
  80710411, $GPGGA,222510.80,3945.0627863,N,10513.3077383,W,4,24,0.7,1763.879,M,-15.952,M,2.8,0000*4A
  80711411, $GPGGA,222511.80,3945.0630736,N,10513.3073616,W,4,23,0.8,1763.850,M,-15.952,M,1.8,0000*4F
  80712412, $GPGGA,222512.80,3945.0633166,N,10513.3068602,W,4,24,0.7,1763.775,M,-15.952,M,2.8,0000*40
  80713411, $GPGGA,222513.80,3945.0635399,N,10513.3063586,W,4,24,0.8,1763.807,M,-15.952,M,1.8,0000*47
  80714411, $GPGGA,222514.80,3945.0638476,N,10513.3059721,W,4,24,0.8,1763.784,M,-15.952,M,2.8,0000*4A
  80715412, $GPGGA,222515.80,3945.0640962,N,10513.3054631,W,4,24,0.8,1763.718,M,-15.952,M,1.8,0000*47
  80716412, $GPGGA,222516.80,3945.0642950,N,10513.3049684,W,4,23,0.8,1763.716,M,-15.952,M,2.8,0000*4F
  80717411, $GPGGA,222517.80,3945.0646019,N,10513.3045690,W,4,24,0.7,1763.695,M,-15.952,M,1.8,0000*46
  80718411, $GPGGA,222518.80,3945.0648670,N,10513.3040731,W,4,24,0.7,1763.609,M,-15.952,M,2.8,0000*47
  80719410, $GPGGA,222519.80,3945.0651219,N,10513.3035737,W,4,23,0.7,1763.640,M,-15.952,M,1.8,0000*48
  80720411, $GPGGA,222520.80,3945.0654109,N,10513.3031681,W,4,24,0.6,1763.632,M,-15.952,M,2.8,0000*4D
  80721409, $GPGGA,222521.80,3945.0656716,N,10513.3026604,W,4,24,0.6,1763.566,M,-15.953,M,1.8,0000*4D
  80722410, $GPGGA,222522.80,3945.0658645,N,10513.3021843,W,4,24,0.6,1763.592,M,-15.953,M,2.8,0000*45
  80723410, $GPGGA,222523.80,3945.0661922,N,10513.3017756,W,4,22,0.7,1763.568,M,-15.953,M,1.8,0000*4F
  80724410, $GPGGA,222524.80,3945.0664448,N,10513.3012579,W,4,22,0.7,1763.492,M,-15.953,M,2.8,0000*41
  80725410, $GPGGA,222525.80,3945.0666258,N,10513.3007599,W,4,23,0.7,1763.524,M,-15.953,M,1.8,0000*41
  80726410, $GPGGA,222526.80,3945.0669164,N,10513.3003467,W,4,22,0.7,1763.492,M,-15.953,M,2.8,0000*4B
  80727410, $GPGGA,222527.80,3945.0672115,N,10513.2998377,W,4,22,0.8,1763.454,M,-15.953,M,1.8,0000*4C
  80728409, $GPGGA,222528.80,3945.0674704,N,10513.2993419,W,4,21,0.8,1763.503,M,-15.953,M,2.8,0000*44
  80729411, $GPGGA,222529.80,3945.0677728,N,10513.2990074,W,4,23,0.8,1763.500,M,-15.953,M,1.8,0000*46
  80730409, $GPGGA,222530.80,3945.0679690,N,10513.2985355,W,4,23,0.8,1763.460,M,-15.953,M,2.8,0000*42
  80731409, $GPGGA,222531.80,3945.0682378,N,10513.2980113,W,4,22,0.8,1763.454,M,-15.953,M,1.8,0000*44
  80732410, $GPGGA,222532.80,3945.0685154,N,10513.2975194,W,4,21,0.8,1763.403,M,-15.953,M,2.8,0000*4B
  80733409, $GPGGA,222533.80,3945.0687315,N,10513.2970844,W,4,22,0.7,1763.353,M,-15.953,M,1.8,0000*43
  80734410, $GPGGA,222534.80,3945.0689798,N,10513.2965467,W,4,23,0.7,1763.390,M,-15.953,M,2.8,0000*4F
  80735409, $GPGGA,222535.80,3945.0692825,N,10513.2960947,W,4,22,0.8,1763.353,M,-15.953,M,1.8,0000*45
  80736410, $GPGGA,222536.80,3945.0695311,N,10513.2956411,W,4,21,0.8,1763.316,M,-15.953,M,2.8,0000*47
  80737409, $GPGGA,222537.80,3945.0697777,N,10513.2951270,W,4,22,0.8,1763.341,M,-15.953,M,1.8,0000*44
  80738407, $GPGGA,222538.80,3945.0700561,N,10513.2946358,W,4,22,0.8,1763.293,M,-15.953,M,2.8,0000*41
  80739409, $GPGGA,222539.80,3945.0702913,N,10513.2942107,W,4,22,0.8,1763.315,M,-15.953,M,1.8,0000*4B
  80740410, $GPGGA,222540.80,3945.0704755,N,10513.2936650,W,4,22,0.8,1763.311,M,-15.953,M,2.8,0000*4E
  80741408, $GPGGA,222541.80,3945.0708078,N,10513.2930980,W,4,22,0.8,1763.225,M,-15.953,M,1.8,0000*4A
  80742408, $GPGGA,222542.80,3945.0711770,N,10513.2925486,W,4,22,0.8,1763.224,M,-15.953,M,2.8,0000*43
  80743409, $GPGGA,222543.80,3945.0713835,N,10513.2920350,W,4,22,0.8,1763.195,M,-15.953,M,1.8,0000*4D
  80744409, $GPGGA,222544.80,3945.0717251,N,10513.2915523,W,4,22,0.8,1763.150,M,-15.953,M,2.8,0000*48
  80745410, $GPGGA,222545.80,3945.0720491,N,10513.2910112,W,4,22,0.8,1763.201,M,-15.953,M,1.8,0000*40
  80746410, $GPGGA,222546.80,3945.0722989,N,10513.2904553,W,4,22,0.8,1763.136,M,-15.953,M,2.8,0000*45
  80747410, $GPGGA,222547.80,3945.0725719,N,10513.2899963,W,4,21,0.8,1763.152,M,-15.954,M,1.8,0000*4B
  80748411, $GPGGA,222548.80,3945.0728852,N,10513.2896408,W,4,21,0.8,1763.132,M,-15.954,M,2.8,0000*43
  80749408, $GPGGA,222549.80,3945.0730997,N,10513.2891360,W,4,22,0.8,1763.082,M,-15.954,M,1.8,0000*47
  80750410, $GPGGA,222550.80,3945.0732443,N,10513.2887015,W,4,21,0.8,1763.117,M,-15.954,M,2.8,0000*42
  80751409, $GPGGA,222551.80,3945.0735084,N,10513.2883431,W,4,22,0.8,1763.133,M,-15.954,M,1.8,0000*4B
  80752409, $GPGGA,222552.80,3945.0737554,N,10513.2877784,W,4,22,0.8,1763.077,M,-15.954,M,2.8,0000*46
  80753409, $GPGGA,222553.80,3945.0740243,N,10513.2872270,W,4,21,0.8,1763.115,M,-15.954,M,1.8,0000*48
  80754410, $GPGGA,222554.80,3945.0743171,N,10513.2868146,W,4,21,0.8,1763.042,M,-15.954,M,2.8,0000*43
  80755409, $GPGGA,222555.80,3945.0745991,N,10513.2863786,W,4,21,0.8,1763.009,M,-15.954,M,1.8,0000*4F
  80756409, $GPGGA,222556.80,3945.0748255,N,10513.2858499,W,4,22,0.8,1762.966,M,-15.954,M,2.8,0000*46
  80757408, $GPGGA,222557.80,3945.0751135,N,10513.2853102,W,4,21,0.8,1762.935,M,-15.954,M,1.8,0000*40
  80758409, $GPGGA,222558.80,3945.0753962,N,10513.2848977,W,4,22,0.8,1762.894,M,-15.954,M,2.8,0000*4D
  80759407, $GPGGA,222559.80,3945.0755903,N,10513.2844290,W,4,22,0.8,1762.840,M,-15.954,M,1.8,0000*49
  80760409, $GPGGA,222600.80,3945.0758581,N,10513.2839257,W,4,22,0.8,1762.838,M,-15.954,M,2.8,0000*40
  80761412, $GPGGA,222601.80,3945.0761507,N,10513.2835327,W,4,22,0.8,1762.822,M,-15.954,M,1.8,0000*47
  80762409, $GPGGA,222602.80,3945.0764030,N,10513.2830638,W,4,22,0.8,1762.773,M,-15.954,M,2.8,0000*46
  80763409, $GPGGA,222603.80,3945.0765922,N,10513.2825085,W,4,22,0.8,1762.782,M,-15.954,M,1.8,0000*45
  80764410, $GPGGA,222604.80,3945.0768986,N,10513.2820925,W,4,21,0.8,1762.747,M,-15.954,M,2.8,0000*4E
  80765408, $GPGGA,222605.80,3945.0771565,N,10513.2815646,W,4,22,0.8,1762.666,M,-15.954,M,1.8,0000*48
  80766409, $GPGGA,222606.80,3945.0773651,N,10513.2810214,W,4,21,0.8,1762.696,M,-15.954,M,2.8,0000*44
  80767407, $GPGGA,222607.80,3945.0776428,N,10513.2806815,W,4,21,0.8,1762.653,M,-15.954,M,1.8,0000*4A
  80768409, $GPGGA,222608.80,3945.0778829,N,10513.2802210,W,4,22,0.8,1762.601,M,-15.954,M,2.8,0000*4A
  80769408, $GPGGA,222609.80,3945.0780920,N,10513.2797443,W,4,21,0.8,1762.582,M,-15.954,M,1.8,0000*4F
  80770409, $GPGGA,222610.80,3945.0783443,N,10513.2793111,W,4,21,0.8,1762.579,M,-15.954,M,2.8,0000*4D
  80771408, $GPGGA,222611.80,3945.0785637,N,10513.2788152,W,4,21,0.8,1762.502,M,-15.954,M,1.8,0000*49
  80772410, $GPGGA,222612.80,3945.0788072,N,10513.2783565,W,4,22,0.8,1762.499,M,-15.954,M,2.8,0000*48
  80773409, $GPGGA,222613.80,3945.0791020,N,10513.2779618,W,4,22,0.8,1762.469,M,-15.954,M,1.8,0000*46
  80774407, $GPGGA,222614.80,3945.0793137,N,10513.2774641,W,4,21,0.8,1762.390,M,-15.954,M,2.8,0000*44
  80775409, $GPGGA,222615.80,3945.0795311,N,10513.2769787,W,4,22,0.8,1762.386,M,-15.955,M,1.8,0000*44
  80776410, $GPGGA,222616.80,3945.0797843,N,10513.2765797,W,4,21,0.8,1762.361,M,-15.955,M,2.8,0000*4D
  80777409, $GPGGA,222617.80,3945.0800594,N,10513.2760727,W,4,21,0.8,1762.301,M,-15.955,M,1.8,0000*41
  80778409, $GPGGA,222618.80,3945.0803296,N,10513.2755478,W,4,22,0.8,1762.318,M,-15.955,M,2.8,0000*4F
  80779409, $GPGGA,222619.80,3945.0806241,N,10513.2751063,W,4,21,0.8,1762.306,M,-15.955,M,1.8,0000*44
  80780409, $GPGGA,222620.80,3945.0808669,N,10513.2746602,W,4,22,0.8,1762.227,M,-15.955,M,2.8,0000*4B
  80781408, $GPGGA,222621.80,3945.0810947,N,10513.2740944,W,4,21,0.8,1762.240,M,-15.955,M,1.8,0000*4A
  80782408, $GPGGA,222622.80,3945.0814120,N,10513.2735226,W,4,22,0.8,1762.146,M,-15.955,M,2.8,0000*4C
  80783408, $GPGGA,222623.80,3945.0817142,N,10513.2731043,W,4,22,0.8,1762.179,M,-15.955,M,1.8,0000*40
  80784408, $GPGGA,222624.80,3945.0819087,N,10513.2726129,W,4,22,0.8,1762.159,M,-15.955,M,2.8,0000*4B
  80785406, $GPGGA,222625.80,3945.0822209,N,10513.2720890,W,4,22,0.8,1762.101,M,-15.955,M,1.8,0000*45
  80786409, $GPGGA,222626.80,3945.0825279,N,10513.2715900,W,4,21,0.8,1762.109,M,-15.955,M,2.8,0000*40
  80787407, $GPGGA,222627.80,3945.0827864,N,10513.2710979,W,4,22,0.8,1762.032,M,-15.955,M,1.8,0000*47
  80788407, $GPGGA,222628.80,3945.0830232,N,10513.2706174,W,4,22,0.8,1762.054,M,-15.955,M,2.8,0000*46
  80789407, $GPGGA,222629.80,3945.0833201,N,10513.2701812,W,4,22,0.8,1761.986,M,-15.955,M,1.8,0000*4C
  80790409, $GPGGA,222630.80,3945.0835855,N,10513.2696421,W,4,22,0.8,1761.949,M,-15.955,M,2.8,0000*4A
  80791408, $GPGGA,222631.80,3945.0837941,N,10513.2690937,W,4,22,0.8,1761.917,M,-15.955,M,1.8,0000*49
  80792407, $GPGGA,222632.80,3945.0840793,N,10513.2686660,W,4,22,0.8,1761.849,M,-15.955,M,2.8,0000*48
  80793408, $GPGGA,222633.80,3945.0843727,N,10513.2681733,W,4,21,0.8,1761.862,M,-15.955,M,1.8,0000*4C
  80794409, $GPGGA,222634.80,3945.0846308,N,10513.2676198,W,4,21,0.8,1761.821,M,-15.955,M,2.8,0000*4C
  80795408, $GPGGA,222635.80,3945.0849052,N,10513.2671263,W,4,22,0.8,1761.823,M,-15.955,M,1.8,0000*4C
  80796408, $GPGGA,222636.80,3945.0852101,N,10513.2666854,W,4,22,0.8,1761.830,M,-15.955,M,2.8,0000*4B
  80797409, $GPGGA,222637.80,3945.0854512,N,10513.2661447,W,4,23,0.8,1761.758,M,-15.955,M,1.8,0000*40
  80798410, $GPGGA,222638.80,3945.0857290,N,10513.2656176,W,4,22,0.8,1761.789,M,-15.955,M,2.8,0000*4C
  80799409, $GPGGA,222639.80,3945.0860504,N,10513.2651956,W,4,22,0.8,1761.731,M,-15.955,M,1.8,0000*4E
  80800410, $GPGGA,222640.80,3945.0863321,N,10513.2647303,W,4,22,0.8,1761.686,M,-15.955,M,2.8,0000*41
  80801411, $GPGGA,222641.80,3945.0865510,N,10513.2641815,W,4,23,0.8,1761.682,M,-15.955,M,1.8,0000*4E
  80802411, $GPGGA,222642.80,3945.0868273,N,10513.2636176,W,4,22,0.8,1761.632,M,-15.956,M,2.8,0000*44
  80803410, $GPGGA,222643.80,3945.0871353,N,10513.2631410,W,4,22,0.8,1761.612,M,-15.956,M,1.8,0000*4D
  80804410, $GPGGA,222644.80,3945.0873707,N,10513.2625597,W,4,22,0.8,1761.556,M,-15.956,M,2.8,0000*46
  80805410, $GPGGA,222645.80,3945.0877057,N,10513.2619591,W,4,22,0.8,1761.570,M,-15.956,M,1.8,0000*4F
  80806411, $GPGGA,222646.80,3945.0880564,N,10513.2613659,W,4,23,0.8,1761.491,M,-15.956,M,2.8,0000*40
  80807410, $GPGGA,222647.80,3945.0884056,N,10513.2607919,W,4,21,0.9,1761.490,M,-15.956,M,1.8,0000*4E
  80808411, $GPGGA,222648.80,3945.0886543,N,10513.2602222,W,4,22,0.8,1761.423,M,-15.956,M,2.8,0000*4D
  80809410, $GPGGA,222649.80,3945.0888118,N,10513.2598813,W,4,22,0.8,1761.462,M,-15.956,M,1.8,0000*46
  80810409, $GPGGA,222650.80,3945.0888950,N,10513.2596347,W,4,21,0.9,1761.468,M,-15.956,M,2.8,0000*45
  80811407, $GPGGA,222651.80,3945.0888876,N,10513.2596398,W,4,21,0.9,1761.462,M,-15.956,M,1.8,0000*4A
  80812409, $GPGGA,222652.80,3945.0888849,N,10513.2596474,W,4,21,0.9,1761.457,M,-15.956,M,2.8,0000*45
  80813409, $GPGGA,222653.80,3945.0888762,N,10513.2596476,W,4,21,0.9,1761.460,M,-15.956,M,1.8,0000*47
  80814408, $GPGGA,222654.80,3945.0888334,N,10513.2595922,W,4,22,0.8,1761.452,M,-15.956,M,2.8,0000*48
  80815408, $GPGGA,222655.80,3945.0888121,N,10513.2595561,W,4,22,0.9,1761.455,M,-15.956,M,1.8,0000*41
  80816408, $GPGGA,222656.80,3945.0887026,N,10513.2594993,W,4,22,0.8,1761.463,M,-15.956,M,2.8,0000*4C