;GPS@@@
;Ver=1.1.0
;DIP=2009-00152-00
;Date=2026-Jan-31 00:52:17
;Offset_m=0.00,0.00,0.00
;Latency_s=0.00
;---------------------------------------------------------------------------------------------------------------------------------------------
traces,odo_tick,pos(m),time_elapsed(s),GPS
1,0,0.0,6.27531909943,"$GPGGA,230623.60,3945.0937289,N,10513.2659374,W,4,21,0.7,1760.496,M,-15.955,M,1.6,0000*46"
1,0,0.0,6.27597284317,"$GPGGA,230624.60,3945.0937303,N,10513.2659393,W,4,21,0.7,1760.496,M,-15.955,M,2.6,0000*48"
1,0,0.0,6.27639484406,"$GPGGA,230625.60,3945.0937247,N,10513.2659441,W,4,21,0.7,1760.498,M,-15.955,M,1.6,0000*4D"
2,0,0.0,6.27679681778,"$GPGGA,230626.60,3945.0937271,N,10513.2659456,W,4,21,0.7,1760.491,M,-15.955,M,2.6,0000*47"
2,0,0.0,6.27722406387,"$GPGGA,230627.60,3945.0937290,N,10513.2659450,W,4,21,0.7,1760.490,M,-15.955,M,1.6,0000*4D"
2,0,0.0,6.27762508392,"$GPGGA,230628.60,3945.0937279,N,10513.2659427,W,4,21,0.8,1760.491,M,-15.955,M,2.6,0000*48"
5,0,0.0,7.22644996643,"$GPGGA,230629.60,3945.0936592,N,10513.2660673,W,4,22,0.7,1760.506,M,-15.955,M,1.6,0000*43"
14,0,0.0,8.27669239044,"$GPGGA,230630.60,3945.0934512,N,10513.2663892,W,4,21,0.8,1760.543,M,-15.955,M,2.6,0000*4D"
21,0,0.0,9.29268455505,"$GPGGA,230631.60,3945.0933116,N,10513.2666863,W,4,22,0.7,1760.553,M,-15.955,M,1.6,0000*4E"
23,0,0.0,27.216091156,"$GPGGA,230632.60,3945.0932398,N,10513.2668038,W,4,22,0.7,1760.563,M,-15.955,M,2.6,0000*40"
23,0,0.0,27.216545105,"$GPGGA,230633.60,3945.0933149,N,10513.2666719,W,4,21,0.8,1760.564,M,-15.955,M,1.6,0000*4C"
23,0,0.0,27.2169513702,"$GPGGA,230634.60,3945.0933427,N,10513.2666028,W,4,21,0.7,1760.570,M,-15.955,M,2.6,0000*4A"
23,0,0.0,27.2173538208,"$GPGGA,230635.60,3945.0933483,N,10513.2666044,W,4,21,0.8,1760.546,M,-15.955,M,1.6,0000*46"
23,0,0.0,27.217748642,"$GPGGA,230636.60,3945.0933422,N,10513.2665969,W,4,20,0.9,1760.564,M,-15.955,M,2.6,0000*48"
23,0,0.0,27.2181415558,"$GPGGA,230637.60,3945.0933472,N,10513.2666000,W,4,20,0.9,1760.561,M,-15.955,M,1.6,0000*4F"
23,0,0.0,27.2185344696,"$GPGGA,230638.60,3945.0933521,N,10513.2665936,W,4,20,0.8,1760.551,M,-15.955,M,2.6,0000*49"
23,0,0.0,27.2189311981,"$GPGGA,230639.60,3945.0933574,N,10513.2666023,W,4,21,0.8,1760.535,M,-15.955,M,1.6,0000*46"
23,0,0.0,27.2193241119,"$GPGGA,230640.60,3945.0933526,N,10513.2665983,W,4,21,0.8,1760.555,M,-15.955,M,2.6,0000*4A"
24,0,0.0,27.2197208405,"$GPGGA,230641.60,3945.0933520,N,10513.2665984,W,4,21,0.8,1760.556,M,-15.955,M,1.6,0000*4A"
24,0,0.0,27.220117569,"$GPGGA,230642.60,3945.0933503,N,10513.2665973,W,4,21,0.8,1760.559,M,-15.955,M,2.6,0000*4C"
24,0,0.0,27.2205753326,"$GPGGA,230643.60,3945.0933511,N,10513.2665978,W,4,22,0.7,1760.559,M,-15.955,M,1.6,0000*4A"
24,0,0.0,27.2209815979,"$GPGGA,230644.60,3945.0933550,N,10513.2666000,W,4,22,0.7,1760.568,M,-15.955,M,2.6,0000*4C"
24,0,0.0,27.2213764191,"$GPGGA,230645.60,3945.0933560,N,10513.2665995,W,4,22,0.7,1760.567,M,-15.955,M,1.6,0000*44"
24,0,0.0,27.2217731476,"$GPGGA,230646.60,3945.0933459,N,10513.2665723,W,4,21,0.7,1760.574,M,-15.955,M,2.6,0000*4D"
24,0,0.0,27.2221698761,"$GPGGA,230647.60,3945.0933527,N,10513.2665963,W,4,22,0.7,1760.562,M,-15.955,M,1.6,0000*49"
24,0,0.0,27.2225666046,"$GPGGA,230648.60,3945.0933353,N,10513.2666186,W,4,21,0.8,1760.555,M,-15.955,M,2.6,0000*48"
24,0,0.0,27.2229614258,"$GPGGA,230649.60,3945.0932409,N,10513.2667903,W,4,21,0.8,1760.560,M,-15.955,M,1.6,0000*41"
33,0,0.0,28.2834892273,"$GPGGA,230650.60,3945.0930192,N,10513.2671727,W,4,22,0.7,1760.587,M,-15.955,M,2.6,0000*45"
42,0,0.0,29.2301998138,"$GPGGA,230651.60,3945.0928245,N,10513.2675275,W,4,21,0.8,1760.599,M,-15.955,M,1.6,0000*42"
46,0,0.0,30.2687263489,"$GPGGA,230652.60,3945.0927370,N,10513.2676814,W,4,21,0.8,1760.626,M,-15.955,M,2.6,0000*43"
53,0,0.0,31.2648162842,"$GPGGA,230653.60,3945.0925810,N,10513.2679575,W,4,21,0.8,1760.636,M,-15.955,M,1.6,0000*4A"
62,0,0.0,32.2596588135,"$GPGGA,230654.60,3945.0923967,N,10513.2683013,W,4,21,0.8,1760.655,M,-15.955,M,2.6,0000*4C"
73,0,0.0,33.3055381775,"$GPGGA,230655.60,3945.0921536,N,10513.2687448,W,4,21,0.8,1760.680,M,-15.955,M,1.6,0000*42"
85,0,0.0,34.2642860413,"$GPGGA,230656.60,3945.0919075,N,10513.2692129,W,4,21,0.8,1760.710,M,-15.955,M,2.6,0000*45"
96,0,0.0,35.2962760925,"$GPGGA,230657.60,3945.0916559,N,10513.2696859,W,4,21,0.8,1760.724,M,-15.955,M,1.6,0000*4E"
108,0,0.0,36.254989624,"$GPGGA,230658.60,3945.0913931,N,10513.2701456,W,4,22,0.7,1760.759,M,-15.955,M,2.6,0000*4F"
120,0,0.0,37.3092803955,"$GPGGA,230659.60,3945.0911335,N,10513.2706235,W,4,22,0.7,1760.779,M,-15.955,M,1.6,0000*47"
133,0,0.0,38.2254219055,"$GPGGA,230700.60,3945.0908657,N,10513.2711367,W,4,22,0.7,1760.813,M,-15.955,M,2.6,0000*43"
145,0,0.0,39.2681846619,"$GPGGA,230701.60,3945.0906020,N,10513.2716295,W,4,22,0.7,1760.839,M,-15.955,M,1.6,0000*4A"
155,0,0.0,40.3092651367,"$GPGGA,230702.60,3945.0903732,N,10513.2720532,W,4,22,0.7,1760.861,M,-15.955,M,2.6,0000*49"
165,0,0.0,41.2759666443,"$GPGGA,230703.60,3945.0901736,N,10513.2724500,W,4,22,0.7,1760.874,M,-15.955,M,1.6,0000*4C"
175,0,0.0,42.3031692505,"$GPGGA,230704.60,3945.0899483,N,10513.2728665,W,4,22,0.7,1760.885,M,-15.955,M,2.6,0000*47"
186,0,0.0,43.2493438721,"$GPGGA,230705.60,3945.0897296,N,10513.2732687,W,4,22,0.7,1760.919,M,-15.955,M,1.6,0000*4A"
196,0,0.0,44.22838974,"$GPGGA,230706.60,3945.0895152,N,10513.2737014,W,4,21,0.8,1760.941,M,-15.955,M,2.6,0000*4B"
208,0,0.0,45.2170753479,"$GPGGA,230707.60,3945.0892543,N,10513.2741930,W,4,22,0.7,1760.995,M,-15.955,M,1.6,0000*41"
216,0,0.0,46.2799873352,"$GPGGA,230708.60,3945.0890693,N,10513.2745344,W,4,22,0.7,1761.032,M,-15.955,M,2.6,0000*49"
226,0,0.0,47.2318916321,"$GPGGA,230709.60,3945.0888842,N,10513.2749144,W,4,21,0.8,1761.059,M,-15.955,M,1.6,0000*4F"
236,0,0.0,48.2796173096,"$GPGGA,230710.60,3945.0886693,N,10513.2753274,W,4,21,0.8,1761.073,M,-15.955,M,2.6,0000*4B"
246,0,0.0,49.2202224731,"$GPGGA,230711.60,3945.0884535,N,10513.2757411,W,4,21,0.8,1761.102,M,-15.955,M,1.6,0000*42"
257,0,0.0,50.2852478027,"$GPGGA,230712.60,3945.0882289,N,10513.2762061,W,4,22,0.7,1761.133,M,-15.955,M,2.6,0000*4F"
268,0,0.0,51.3068656921,"$GPGGA,230713.60,3945.0880124,N,10513.2766290,W,4,22,0.7,1761.177,M,-15.955,M,1.6,0000*43"
277,0,0.0,52.2360801697,"$GPGGA,230714.60,3945.0878120,N,10513.2770134,W,4,22,0.7,1761.195,M,-15.955,M,2.6,0000*42"
288,0,0.0,53.2753677368,"$GPGGA,230715.60,3945.0876111,N,10513.2774221,W,4,22,0.7,1761.224,M,-15.955,M,1.6,0000*46"
298,0,0.0,54.3284683228,"$GPGGA,230716.60,3945.0873776,N,10513.2778510,W,4,22,0.7,1761.281,M,-15.955,M,2.6,0000*42"
308,0,0.0,54.3289451599,"$GPGGA,230717.60,3945.0871589,N,10513.2782816,W,4,22,0.7,1761.315,M,-15.954,M,1.6,0000*43"
308,0,0.0,55.2581100464,"$GPGGA,230716.60,3945.0873776,N,10513.2778510,W,4,22,0.7,1761.281,M,-15.955,M,2.6,0000*42"
308,0,0.0,55.2586135864,"$GPGGA,230717.60,3945.0871589,N,10513.2782816,W,4,22,0.7,1761.315,M,-15.954,M,1.6,0000*43"
320,0,0.0,56.306968689,"$GPGGA,230718.60,3945.0868950,N,10513.2787385,W,4,22,0.7,1761.343,M,-15.954,M,2.6,0000*48"
332,0,0.0,57.2457427979,"$GPGGA,230719.60,3945.0866066,N,10513.2792118,W,4,20,0.9,1761.368,M,-15.954,M,1.6,0000*4F"
344,0,0.0,58.2719306946,"$GPGGA,230720.60,3945.0863549,N,10513.2796774,W,4,21,0.8,1761.399,M,-15.954,M,2.6,0000*4D"
356,0,0.0,59.3141822815,"$GPGGA,230721.60,3945.0860803,N,10513.2801389,W,4,22,0.7,1761.418,M,-15.954,M,1.6,0000*4A"
370,0,0.0,60.2514381409,"$GPGGA,230722.60,3945.0857873,N,10513.2807000,W,4,22,0.7,1761.469,M,-15.954,M,2.6,0000*4B"
383,0,0.0,61.3085899353,"$GPGGA,230723.60,3945.0854860,N,10513.2812286,W,4,22,0.7,1761.505,M,-15.954,M,1.6,0000*4B"
396,0,0.0,62.2635192871,"$GPGGA,230724.60,3945.0851828,N,10513.2817564,W,4,21,0.8,1761.536,M,-15.954,M,2.6,0000*44"
410,0,0.0,63.3037033081,"$GPGGA,230725.60,3945.0848962,N,10513.2822650,W,4,21,0.8,1761.575,M,-15.954,M,1.6,0000*44"
424,0,0.0,64.2440261841,"$GPGGA,230726.60,3945.0845907,N,10513.2828325,W,4,21,0.8,1761.592,M,-15.954,M,2.6,0000*4E"
437,0,0.0,65.2848587036,"$GPGGA,230727.60,3945.0843058,N,10513.2833569,W,4,22,0.7,1761.623,M,-15.954,M,1.6,0000*48"
451,0,0.0,66.228302002,"$GPGGA,230728.60,3945.0839908,N,10513.2839455,W,4,22,0.7,1761.655,M,-15.954,M,2.6,0000*40"
466,0,0.0,67.2870864868,"$GPGGA,230729.60,3945.0836474,N,10513.2845235,W,4,22,0.7,1761.700,M,-15.954,M,1.6,0000*41"
482,0,0.0,68.2527618408,"$GPGGA,230730.60,3945.0833313,N,10513.2851642,W,4,22,0.7,1761.740,M,-15.954,M,2.6,0000*4C"
495,0,0.0,69.3123550415,"$GPGGA,230731.60,3945.0830154,N,10513.2857051,W,4,21,0.8,1761.776,M,-15.954,M,1.6,0000*47"
509,0,0.0,70.2558288574,"$GPGGA,230732.60,3945.0827195,N,10513.2862833,W,4,22,0.7,1761.816,M,-15.954,M,2.6,0000*43"
523,0,0.0,71.2958374023,"$GPGGA,230733.60,3945.0824257,N,10513.2867939,W,4,21,0.7,1761.844,M,-15.954,M,1.6,0000*45"
536,0,0.0,72.2566986084,"$GPGGA,230734.60,3945.0821494,N,10513.2873313,W,4,22,0.7,1761.880,M,-15.954,M,2.6,0000*41"
548,0,0.0,73.2881469727,"$GPGGA,230735.60,3945.0818906,N,10513.2878393,W,4,21,0.8,1761.911,M,-15.954,M,1.6,0000*49"
560,0,0.0,74.3092575073,"$GPGGA,230736.60,3945.0816345,N,10513.2883340,W,4,20,0.9,1761.936,M,-15.954,M,2.6,0000*45"
571,0,0.0,75.2578430176,"$GPGGA,230737.60,3945.0813949,N,10513.2887934,W,4,20,0.9,1761.941,M,-15.954,M,1.6,0000*49"
583,0,0.0,76.297164917,"$GPGGA,230738.60,3945.0811583,N,10513.2892877,W,4,20,0.9,1761.959,M,-15.954,M,2.6,0000*46"
594,0,0.0,77.2521362305,"$GPGGA,230739.60,3945.0809129,N,10513.2897395,W,4,21,0.7,1761.997,M,-15.954,M,1.6,0000*46"
606,0,0.0,78.2885513306,"$GPGGA,230740.60,3945.0806813,N,10513.2902211,W,4,22,0.7,1762.007,M,-15.954,M,2.6,0000*44"
619,0,0.0,79.2273406982,"$GPGGA,230741.60,3945.0803921,N,10513.2907522,W,4,22,0.7,1762.046,M,-15.954,M,1.6,0000*44"
631,0,0.0,80.270942688,"$GPGGA,230742.60,3945.0801229,N,10513.2912613,W,4,22,0.7,1762.066,M,-15.953,M,2.6,0000*45"
644,0,0.0,81.3154754639,"$GPGGA,230743.60,3945.0798418,N,10513.2917837,W,4,22,0.7,1762.088,M,-15.953,M,1.6,0000*41"
656,0,0.0,82.2501068115,"$GPGGA,230744.60,3945.0795830,N,10513.2922588,W,4,22,0.7,1762.128,M,-15.953,M,2.6,0000*4A"
662,0,0.0,83.2660827637,"$GPGGA,230745.60,3945.0794312,N,10513.2925520,W,4,22,0.7,1762.134,M,-15.953,M,1.6,0000*4A"
666,0,0.0,85.2155380249,"$GPGGA,230746.60,3945.0793482,N,10513.2927057,W,4,23,0.7,1762.147,M,-15.953,M,2.6,0000*41"
667,0,0.0,86.2579269409,"$GPGGA,230747.60,3945.0793309,N,10513.2927491,W,4,21,0.7,1762.154,M,-15.953,M,1.6,0000*49"
668,0,0.0,86.258392334,"$GPGGA,230748.60,3945.0793124,N,10513.2927869,W,4,23,0.7,1762.153,M,-15.953,M,2.6,0000*46"
671,0,0.0,87.3237228394,"$GPGGA,230749.60,3945.0792503,N,10513.2928948,W,4,22,0.7,1762.150,M,-15.953,M,1.6,0000*4B"
677,0,0.0,88.2965774536,"$GPGGA,230750.60,3945.0791248,N,10513.2931361,W,4,20,0.8,1762.157,M,-15.953,M,2.6,0000*48"
684,0,0.0,89.2467727661,"$GPGGA,230751.60,3945.0789720,N,10513.2934169,W,4,22,0.7,1762.187,M,-15.953,M,1.6,0000*47"
689,0,0.0,90.2759094238,"$GPGGA,230752.60,3945.0788566,N,10513.2936293,W,4,21,0.7,1762.203,M,-15.953,M,2.6,0000*4E"
696,0,0.0,91.3169174194,"$GPGGA,230753.60,3945.0787077,N,10513.2939022,W,4,22,0.7,1762.214,M,-15.953,M,1.6,0000*44"
701,0,0.0,92.2462921143,"$GPGGA,230754.60,3945.0785919,N,10513.2941223,W,4,22,0.7,1762.207,M,-15.953,M,2.6,0000*4D"
706,0,0.0,93.2777099609,"$GPGGA,230755.60,3945.0784856,N,10513.2943172,W,4,22,0.7,1762.222,M,-15.953,M,1.6,0000*46"
712,0,0.0,94.3086853027,"$GPGGA,230756.60,3945.0783664,N,10513.2945554,W,4,21,0.8,1762.229,M,-15.953,M,2.6,0000*4F"
717,0,0.0,95.2232055664,"$GPGGA,230757.60,3945.0782370,N,10513.2947651,W,4,21,0.8,1762.259,M,-15.953,M,1.6,0000*4F"
725,0,0.0,96.3040542603,"$GPGGA,230758.60,3945.0780860,N,10513.2950790,W,4,19,0.9,1762.255,M,-15.953,M,2.6,0000*47"
734,0,0.0,97.2507629395,"$GPGGA,230759.60,3945.0778981,N,10513.2954309,W,4,19,0.9,1762.272,M,-15.953,M,1.6,0000*49"
745,0,0.0,98.3352050781,"$GPGGA,230800.60,3945.0776658,N,10513.2958592,W,4,19,0.9,1762.303,M,-15.953,M,2.6,0000*43"
757,0,0.0,99.3274765015,"$GPGGA,230801.60,3945.0774026,N,10513.2963277,W,4,20,0.8,1762.309,M,-15.953,M,1.6,0000*49"
771,0,0.0,100.30355072,"$GPGGA,230802.60,3945.0771013,N,10513.2968716,W,4,20,0.8,1762.329,M,-15.953,M,2.6,0000*41"
785,0,0.0,101.250656128,"$GPGGA,230803.60,3945.0767703,N,10513.2974461,W,4,21,0.7,1762.350,M,-15.953,M,1.6,0000*4C"
800,0,0.0,102.312057495,"$GPGGA,230804.60,3945.0764374,N,10513.2980192,W,4,21,0.7,1762.368,M,-15.953,M,2.6,0000*46"
815,0,0.0,103.268508911,"$GPGGA,230805.60,3945.0760943,N,10513.2986438,W,4,22,0.7,1762.389,M,-15.953,M,1.6,0000*41"
829,0,0.0,104.25592804,"$GPGGA,230806.60,3945.0757684,N,10513.2992126,W,4,22,0.7,1762.393,M,-15.953,M,2.6,0000*45"
845,0,0.0,105.232154846,"$GPGGA,230807.60,3945.0754381,N,10513.2998296,W,4,22,0.7,1762.429,M,-15.953,M,1.6,0000*40"
861,0,0.0,106.272331238,"$GPGGA,230808.60,3945.0750726,N,10513.3004773,W,4,22,0.7,1762.448,M,-15.953,M,2.6,0000*45"
877,0,0.0,107.314254761,"$GPGGA,230809.60,3945.0747139,N,10513.3011100,W,4,22,0.7,1762.488,M,-15.953,M,1.6,0000*43"
893,0,0.0,108.263641357,"$GPGGA,230810.60,3945.0743798,N,10513.3017397,W,4,21,0.8,1762.510,M,-15.953,M,2.6,0000*47"
908,0,0.0,109.302848816,"$GPGGA,230811.60,3945.0740364,N,10513.3023545,W,4,22,0.7,1762.525,M,-15.953,M,1.6,0000*45"
923,0,0.0,110.24332428,"$GPGGA,230812.60,3945.0736848,N,10513.3029479,W,4,22,0.7,1762.559,M,-15.953,M,2.6,0000*4E"
939,0,0.0,111.318153381,"$GPGGA,230813.60,3945.0733393,N,10513.3035458,W,4,22,0.7,1762.583,M,-15.953,M,1.6,0000*4D"
954,0,0.0,112.252609253,"$GPGGA,230814.60,3945.0729819,N,10513.3041701,W,4,22,0.7,1762.615,M,-15.952,M,2.6,0000*4A"
969,0,0.0,113.286636353,"$GPGGA,230815.60,3945.0726329,N,10513.3047748,W,4,22,0.7,1762.634,M,-15.952,M,1.6,0000*47"
983,0,0.0,114.252952576,"$GPGGA,230816.60,3945.0723456,N,10513.3053314,W,4,22,0.7,1762.639,M,-15.952,M,2.6,0000*48"
996,0,0.0,115.337333679,"$GPGGA,230817.60,3945.0720635,N,10513.3058665,W,4,22,0.7,1762.641,M,-15.952,M,1.6,0000*49"
1011,0,0.0,116.271331787,"$GPGGA,230818.60,3945.0717409,N,10513.3064578,W,4,20,0.9,1762.689,M,-15.952,M,2.6,0000*44"
1025,0,0.0,117.220436096,"$GPGGA,230819.60,3945.0714253,N,10513.3070032,W,4,21,0.8,1762.712,M,-15.952,M,1.6,0000*41"
1039,0,0.0,118.258125305,"$GPGGA,230820.60,3945.0711119,N,10513.3075630,W,4,20,0.9,1762.727,M,-15.952,M,2.6,0000*47"
1054,0,0.0,119.289779663,"$GPGGA,230821.60,3945.0707868,N,10513.3081811,W,4,20,0.9,1762.745,M,-15.952,M,1.6,0000*4F"
1069,0,0.0,120.332542419,"$GPGGA,230822.60,3945.0704676,N,10513.3087922,W,4,20,0.9,1762.787,M,-15.952,M,2.6,0000*44"
1084,0,0.0,121.243919373,"$GPGGA,230823.60,3945.0701489,N,10513.3093782,W,4,21,0.8,1762.809,M,-15.952,M,1.6,0000*49"
1099,0,0.0,122.310829163,"$GPGGA,230824.60,3945.0698312,N,10513.3099704,W,4,22,0.7,1762.844,M,-15.952,M,2.6,0000*48"
1114,0,0.0,123.298217773,"$GPGGA,230825.60,3945.0695083,N,10513.3105796,W,4,22,0.7,1762.861,M,-15.952,M,1.6,0000*44"
1128,0,0.0,124.315704346,"$GPGGA,230826.60,3945.0691712,N,10513.3111801,W,4,22,0.7,1762.866,M,-15.952,M,2.6,0000*4C"
1143,0,0.0,125.295852661,"$GPGGA,230827.60,3945.0688607,N,10513.3117678,W,4,22,0.7,1762.876,M,-15.952,M,1.6,0000*44"
1157,0,0.0,126.287658691,"$GPGGA,230828.60,3945.0685624,N,10513.3123525,W,4,22,0.7,1762.884,M,-15.952,M,2.6,0000*45"
1172,0,0.0,127.308494568,"$GPGGA,230829.60,3945.0682627,N,10513.3129439,W,4,22,0.7,1762.909,M,-15.952,M,1.6,0000*41"
1186,0,0.0,128.28024292,"$GPGGA,230830.60,3945.0679340,N,10513.3135369,W,4,22,0.7,1762.942,M,-15.952,M,2.6,0000*4A"
1201,0,0.0,129.237030029,"$GPGGA,230831.60,3945.0676118,N,10513.3140920,W,4,22,0.7,1762.962,M,-15.952,M,1.6,0000*4F"
1214,0,0.0,130.28692627,"$GPGGA,230832.60,3945.0673229,N,10513.3146716,W,4,22,0.7,1762.998,M,-15.952,M,2.6,0000*43"
1228,0,0.0,131.251693726,"$GPGGA,230833.60,3945.0670103,N,10513.3152323,W,4,22,0.7,1763.019,M,-15.952,M,1.6,0000*4F"
1240,0,0.0,132.319564819,"$GPGGA,230834.60,3945.0667509,N,10513.3157230,W,4,22,0.7,1763.047,M,-15.952,M,2.6,0000*4E"
1249,0,0.0,133.229202271,"$GPGGA,230835.60,3945.0665303,N,10513.3161008,W,4,22,0.7,1763.060,M,-15.952,M,1.6,0000*4B"
1254,0,0.0,137.279800415,"$GPGGA,230836.60,3945.0664023,N,10513.3163359,W,4,22,0.7,1763.063,M,-15.952,M,2.6,0000*4D"
1254,0,0.0,137.280258179,"$GPGGA,230837.60,3945.0663916,N,10513.3163543,W,4,22,0.7,1763.066,M,-15.952,M,1.6,0000*4F"
1255,0,0.0,137.280731201,"$GPGGA,230838.60,3945.0663950,N,10513.3163632,W,4,22,0.7,1763.066,M,-15.952,M,2.6,0000*44"
1255,0,0.0,137.281143188,"$GPGGA,230839.60,3945.0663889,N,10513.3163805,W,4,22,0.7,1763.052,M,-15.952,M,1.6,0000*4E"
1263,0,0.0,138.348464966,"$GPGGA,230840.60,3945.0662496,N,10513.3166450,W,4,22,0.7,1763.065,M,-15.952,M,2.6,0000*4D"
1276,0,0.0,139.310775757,"$GPGGA,230841.60,3945.0659584,N,10513.3171607,W,4,22,0.7,1763.066,M,-15.952,M,1.6,0000*40"
1290,0,0.0,140.239959717,"$GPGGA,230842.60,3945.0656381,N,10513.3177141,W,4,22,0.7,1763.081,M,-15.951,M,2.6,0000*45"
1304,0,0.0,141.301559448,"$GPGGA,230843.60,3945.0653296,N,10513.3182965,W,4,22,0.7,1763.090,M,-15.951,M,1.6,0000*41"
1317,0,0.0,142.304336548,"$GPGGA,230844.60,3945.0650459,N,10513.3188089,W,4,22,0.7,1763.101,M,-15.951,M,2.6,0000*4B"
1330,0,0.0,143.261352539,"$GPGGA,230845.60,3945.0647809,N,10513.3193363,W,4,22,0.7,1763.115,M,-15.951,M,1.6,0000*4E"
1343,0,0.0,144.325973511,"$GPGGA,230846.60,3945.0644921,N,10513.3198769,W,4,22,0.7,1763.141,M,-15.951,M,2.6,0000*42"
1356,0,0.0,145.253295898,"$GPGGA,230847.60,3945.0642031,N,10513.3203909,W,4,22,0.7,1763.152,M,-15.951,M,1.6,0000*45"
1364,0,0.0,146.187194824,"$GPGGA,230848.60,3945.0640013,N,10513.3208038,W,4,20,0.8,1763.143,M,-15.951,M,2.6,0000*46"
