;GPS@@@
;Ver=1.1.0
;DIP=2009-00152-00
;Date=2026-Jan-31 00:10:03
;Offset_m=0.00,0.00,0.00
;Latency_s=0.00
;---------------------------------------------------------------------------------------------------------------------------------------------
traces,odo_tick,pos(m),time_elapsed(s),GPS
1,0,0.0,1.40561294556,"$GPGGA,222406.60,3945.0934453,N,10513.2664307,W,4,21,0.9,1760.574,M,-15.955,M,2.6,0000*48"
8,0,0.0,2.46733498573,"$GPGGA,222407.60,3945.0933107,N,10513.2667022,W,4,22,0.9,1760.591,M,-15.955,M,1.6,0000*46"
15,0,0.0,3.41193008423,"$GPGGA,222408.60,3945.0931657,N,10513.2669583,W,4,23,0.8,1760.620,M,-15.955,M,2.6,0000*43"
24,0,0.0,4.51565313339,"$GPGGA,222409.60,3945.0929875,N,10513.2673048,W,4,22,0.9,1760.612,M,-15.955,M,1.6,0000*4E"
33,0,0.0,5.40661811829,"$GPGGA,222410.60,3945.0927944,N,10513.2676903,W,4,23,0.8,1760.638,M,-15.955,M,2.6,0000*43"
43,0,0.0,6.47750902176,"$GPGGA,222411.60,3945.0925693,N,10513.2680979,W,4,23,0.8,1760.650,M,-15.955,M,1.6,0000*4C"
54,0,0.0,7.41224193573,"$GPGGA,222412.60,3945.0923353,N,10513.2684861,W,4,23,0.8,1760.675,M,-15.955,M,2.6,0000*48"
64,0,0.0,8.40863418579,"$GPGGA,222413.60,3945.0921079,N,10513.2689222,W,4,24,0.7,1760.703,M,-15.955,M,1.6,0000*4B"
74,0,0.0,9.39476776123,"$GPGGA,222414.60,3945.0918877,N,10513.2693155,W,4,25,0.7,1760.705,M,-15.955,M,2.6,0000*4C"
84,0,0.0,10.3965368271,"$GPGGA,222415.60,3945.0916765,N,10513.2697162,W,4,25,0.8,1760.733,M,-15.955,M,1.6,0000*46"
94,0,0.0,11.4902667999,"$GPGGA,222416.60,3945.0914441,N,10513.2701494,W,4,25,0.8,1760.759,M,-15.955,M,2.6,0000*4F"
106,0,0.0,12.3872690201,"$GPGGA,222417.60,3945.0911931,N,10513.2705968,W,4,25,0.8,1760.787,M,-15.955,M,1.6,0000*4B"
118,0,0.0,13.4471273422,"$GPGGA,222418.60,3945.0909391,N,10513.2710896,W,4,24,0.8,1760.811,M,-15.955,M,2.6,0000*4B"
130,0,0.0,14.4468650818,"$GPGGA,222419.60,3945.0907055,N,10513.2715406,W,4,24,0.8,1760.835,M,-15.955,M,1.6,0000*4A"
142,0,0.0,15.4197063446,"$GPGGA,222420.60,3945.0904258,N,10513.2720252,W,4,24,0.8,1760.836,M,-15.955,M,2.6,0000*4D"
154,0,0.0,16.4058971405,"$GPGGA,222421.60,3945.0901543,N,10513.2725335,W,4,24,0.8,1760.879,M,-15.955,M,1.6,0000*49"
167,0,0.0,17.4322109222,"$GPGGA,222422.60,3945.0898600,N,10513.2730408,W,4,24,0.8,1760.918,M,-15.955,M,2.6,0000*47"
179,0,0.0,18.421787262,"$GPGGA,222423.60,3945.0896195,N,10513.2734954,W,4,24,0.8,1760.947,M,-15.955,M,1.6,0000*4A"
191,0,0.0,19.4087429047,"$GPGGA,222424.60,3945.0893570,N,10513.2739792,W,4,24,0.8,1760.961,M,-15.955,M,2.6,0000*49"
203,0,0.0,20.4460754395,"$GPGGA,222425.60,3945.0891095,N,10513.2744539,W,4,25,0.8,1761.022,M,-15.955,M,1.6,0000*40"
213,0,0.0,21.4154186249,"$GPGGA,222426.60,3945.0888620,N,10513.2748946,W,4,25,0.8,1761.061,M,-15.955,M,2.6,0000*4F"
226,0,0.0,22.4442272186,"$GPGGA,222427.60,3945.0885992,N,10513.2753838,W,4,23,0.8,1761.089,M,-15.955,M,1.6,0000*44"
238,0,0.0,23.4297733307,"$GPGGA,222428.60,3945.0883481,N,10513.2758664,W,4,23,0.8,1761.127,M,-15.955,M,2.6,0000*48"
250,0,0.0,24.4098682404,"$GPGGA,222429.60,3945.0880918,N,10513.2763496,W,4,25,0.8,1761.162,M,-15.955,M,1.6,0000*44"
262,0,0.0,25.4990997314,"$GPGGA,222430.60,3945.0878201,N,10513.2768170,W,4,25,0.8,1761.193,M,-15.955,M,2.6,0000*43"
275,0,0.0,26.4568042755,"$GPGGA,222431.60,3945.0875549,N,10513.2773266,W,4,24,0.8,1761.230,M,-15.955,M,1.6,0000*42"
287,0,0.0,27.4369316101,"$GPGGA,222432.60,3945.0872872,N,10513.2778447,W,4,23,0.8,1761.278,M,-15.955,M,2.6,0000*45"
298,0,0.0,28.5608501434,"$GPGGA,222433.60,3945.0870475,N,10513.2782770,W,4,23,0.8,1761.319,M,-15.954,M,1.6,0000*4B"
310,0,0.0,28.5613479614,"$GPGGA,222434.60,3945.0867802,N,10513.2787654,W,4,24,0.8,1761.348,M,-15.954,M,2.6,0000*44"
310,0,0.0,29.4138011932,"$GPGGA,222433.60,3945.0870475,N,10513.2782770,W,4,23,0.8,1761.319,M,-15.954,M,1.6,0000*4B"
310,0,0.0,29.4143028259,"$GPGGA,222434.60,3945.0867802,N,10513.2787654,W,4,24,0.8,1761.348,M,-15.954,M,2.6,0000*44"
323,0,0.0,30.4652385712,"$GPGGA,222435.60,3945.0865071,N,10513.2792747,W,4,24,0.8,1761.385,M,-15.954,M,1.6,0000*4E"
336,0,0.0,31.456445694,"$GPGGA,222436.60,3945.0862217,N,10513.2797839,W,4,23,0.8,1761.413,M,-15.954,M,2.6,0000*47"
349,0,0.0,32.3898391724,"$GPGGA,222437.60,3945.0859252,N,10513.2803171,W,4,24,0.7,1761.439,M,-15.954,M,1.6,0000*4B"
363,0,0.0,33.3769302368,"$GPGGA,222438.60,3945.0856441,N,10513.2808777,W,4,23,0.8,1761.466,M,-15.954,M,2.6,0000*45"
376,0,0.0,34.5091552734,"$GPGGA,222439.60,3945.0853624,N,10513.2814167,W,4,23,0.7,1761.484,M,-15.954,M,1.6,0000*4A"
389,0,0.0,35.4084396362,"$GPGGA,222440.60,3945.0850847,N,10513.2819278,W,4,24,0.7,1761.532,M,-15.954,M,2.6,0000*44"
403,0,0.0,36.5219573975,"$GPGGA,222441.60,3945.0847759,N,10513.2824795,W,4,23,0.8,1761.563,M,-15.954,M,1.6,0000*44"
416,0,0.0,37.4403572083,"$GPGGA,222442.60,3945.0844778,N,10513.2830141,W,4,24,0.7,1761.609,M,-15.954,M,2.6,0000*49"
428,0,0.0,38.4169616699,"$GPGGA,222443.60,3945.0841963,N,10513.2835063,W,4,24,0.7,1761.635,M,-15.954,M,1.6,0000*41"
441,0,0.0,39.3768501282,"$GPGGA,222444.60,3945.0839437,N,10513.2840055,W,4,23,0.8,1761.662,M,-15.954,M,2.6,0000*4B"
453,0,0.0,40.4544258118,"$GPGGA,222445.60,3945.0836563,N,10513.2845005,W,4,24,0.7,1761.699,M,-15.954,M,1.6,0000*4A"
466,0,0.0,41.4511642456,"$GPGGA,222446.60,3945.0833870,N,10513.2850237,W,4,24,0.7,1761.733,M,-15.954,M,2.6,0000*46"
477,0,0.0,42.4567756653,"$GPGGA,222447.60,3945.0831440,N,10513.2854822,W,4,24,0.7,1761.749,M,-15.954,M,1.6,0000*4E"
491,0,0.0,43.4602127075,"$GPGGA,222448.60,3945.0828269,N,10513.2860372,W,4,24,0.7,1761.793,M,-15.954,M,2.6,0000*49"
505,0,0.0,44.4505462646,"$GPGGA,222449.60,3945.0825574,N,10513.2865907,W,4,24,0.7,1761.828,M,-15.954,M,1.6,0000*4F"
518,0,0.0,45.4411392212,"$GPGGA,222450.60,3945.0822497,N,10513.2870981,W,4,24,0.7,1761.852,M,-15.954,M,2.6,0000*48"
532,0,0.0,46.4114494324,"$GPGGA,222451.60,3945.0819538,N,10513.2876650,W,4,24,0.7,1761.898,M,-15.954,M,1.6,0000*45"
545,0,0.0,47.4145088196,"$GPGGA,222452.60,3945.0816640,N,10513.2881989,W,4,24,0.7,1761.922,M,-15.954,M,2.6,0000*45"
559,0,0.0,48.4120750427,"$GPGGA,222453.60,3945.0813800,N,10513.2887522,W,4,24,0.7,1761.963,M,-15.954,M,1.6,0000*46"
573,0,0.0,49.4494361877,"$GPGGA,222454.60,3945.0810742,N,10513.2893163,W,4,23,0.7,1761.999,M,-15.954,M,2.6,0000*4E"
586,0,0.0,50.4458999634,"$GPGGA,222455.60,3945.0807912,N,10513.2898572,W,4,23,0.7,1762.010,M,-15.954,M,1.6,0000*45"
600,0,0.0,51.4536170959,"$GPGGA,222456.60,3945.0804910,N,10513.2904148,W,4,24,0.7,1762.038,M,-15.954,M,2.6,0000*40"
612,0,0.0,52.444480896,"$GPGGA,222457.60,3945.0802151,N,10513.2909547,W,4,24,0.7,1762.055,M,-15.954,M,1.6,0000*44"
623,0,0.0,53.3971328735,"$GPGGA,222458.60,3945.0799874,N,10513.2913614,W,4,25,0.7,1762.087,M,-15.953,M,2.6,0000*4C"
633,0,0.0,54.374835968,"$GPGGA,222459.60,3945.0797587,N,10513.2917778,W,4,25,0.7,1762.101,M,-15.953,M,1.6,0000*41"
643,0,0.0,55.4599380493,"$GPGGA,222500.60,3945.0795385,N,10513.2921596,W,4,24,0.7,1762.123,M,-15.953,M,2.6,0000*4F"
653,0,0.0,56.4445343018,"$GPGGA,222501.60,3945.0793253,N,10513.2925765,W,4,25,0.7,1762.134,M,-15.953,M,1.6,0000*4C"
659,0,0.0,57.4110641479,"$GPGGA,222502.60,3945.0791818,N,10513.2928370,W,4,25,0.7,1762.150,M,-15.953,M,2.6,0000*44"
665,0,0.0,58.3599205017,"$GPGGA,222503.60,3945.0790540,N,10513.2930608,W,4,24,0.7,1762.177,M,-15.953,M,1.6,0000*40"
669,0,0.0,59.4384651184,"$GPGGA,222504.60,3945.0789610,N,10513.2932371,W,4,25,0.7,1762.190,M,-15.953,M,2.6,0000*4B"
675,0,0.0,60.4076919556,"$GPGGA,222505.60,3945.0788240,N,10513.2934700,W,4,24,0.7,1762.198,M,-15.953,M,1.6,0000*44"
682,0,0.0,61.3733482361,"$GPGGA,222506.60,3945.0786847,N,10513.2937339,W,4,25,0.7,1762.207,M,-15.953,M,2.6,0000*4E"
687,0,0.0,62.448059082,"$GPGGA,222507.60,3945.0785665,N,10513.2939728,W,4,23,0.7,1762.220,M,-15.953,M,1.6,0000*48"
692,0,0.0,63.4060745239,"$GPGGA,222508.60,3945.0784631,N,10513.2941679,W,4,23,0.8,1762.233,M,-15.953,M,2.6,0000*43"
697,0,0.0,64.3683547974,"$GPGGA,222509.60,3945.0783522,N,10513.2943596,W,4,25,0.7,1762.249,M,-15.953,M,1.6,0000*43"
702,0,0.0,65.4082565308,"$GPGGA,222510.60,3945.0782386,N,10513.2945796,W,4,24,0.7,1762.268,M,-15.953,M,2.6,0000*47"
707,0,0.0,66.4759521484,"$GPGGA,222511.60,3945.0781215,N,10513.2947854,W,4,24,0.7,1762.261,M,-15.953,M,1.6,0000*47"
715,0,0.0,67.4474411011,"$GPGGA,222512.60,3945.0779557,N,10513.2950630,W,4,24,0.7,1762.274,M,-15.953,M,2.6,0000*4F"
723,0,0.0,68.4057998657,"$GPGGA,222513.60,3945.0777859,N,10513.2953912,W,4,23,0.8,1762.272,M,-15.953,M,1.6,0000*42"
733,0,0.0,69.4656524658,"$GPGGA,222514.60,3945.0775822,N,10513.2957667,W,4,23,0.8,1762.292,M,-15.953,M,2.6,0000*4F"
742,0,0.0,70.3853683472,"$GPGGA,222515.60,3945.0773626,N,10513.2961580,W,4,21,1.1,1762.314,M,-15.953,M,1.6,0000*4B"
753,0,0.0,71.3817062378,"$GPGGA,222516.60,3945.0771308,N,10513.2965722,W,4,23,0.8,1762.320,M,-15.953,M,2.6,0000*43"
764,0,0.0,72.3940887451,"$GPGGA,222517.60,3945.0768724,N,10513.2970239,W,4,23,0.7,1762.334,M,-15.953,M,1.6,0000*42"
776,0,0.0,73.4039993286,"$GPGGA,222518.60,3945.0766378,N,10513.2974977,W,4,24,0.7,1762.350,M,-15.953,M,2.6,0000*4D"
790,0,0.0,74.4658966064,"$GPGGA,222519.60,3945.0763411,N,10513.2980450,W,4,23,0.7,1762.361,M,-15.953,M,1.6,0000*44"
804,0,0.0,75.4639358521,"$GPGGA,222520.60,3945.0760467,N,10513.2985961,W,4,23,0.7,1762.386,M,-15.953,M,2.6,0000*4C"
817,0,0.0,76.4769973755,"$GPGGA,222521.60,3945.0757862,N,10513.2991408,W,4,23,0.7,1762.399,M,-15.953,M,1.6,0000*4A"
830,0,0.0,77.4301986694,"$GPGGA,222522.60,3945.0754977,N,10513.2996962,W,4,23,0.7,1762.422,M,-15.953,M,2.6,0000*4D"
845,0,0.0,78.4424591064,"$GPGGA,222523.60,3945.0751964,N,10513.3002692,W,4,22,0.8,1762.428,M,-15.953,M,1.6,0000*49"
858,0,0.0,79.429725647,"$GPGGA,222524.60,3945.0749145,N,10513.3008151,W,4,22,0.8,1762.462,M,-15.953,M,2.6,0000*43"
871,0,0.0,80.4693450928,"$GPGGA,222525.60,3945.0746305,N,10513.3013579,W,4,22,0.8,1762.468,M,-15.953,M,1.6,0000*46"
886,0,0.0,81.4225692749,"$GPGGA,222526.60,3945.0743258,N,10513.3019111,W,4,23,0.8,1762.489,M,-15.953,M,2.6,0000*44"
900,0,0.0,82.4228134155,"$GPGGA,222527.60,3945.0739982,N,10513.3025218,W,4,24,0.8,1762.514,M,-15.953,M,1.6,0000*40"
914,0,0.0,83.4303741455,"$GPGGA,222528.60,3945.0737109,N,10513.3030726,W,4,23,0.8,1762.541,M,-15.953,M,2.6,0000*42"
926,0,0.0,84.4267883301,"$GPGGA,222529.60,3945.0734194,N,10513.3035969,W,4,25,0.8,1762.568,M,-15.953,M,1.6,0000*4A"
940,0,0.0,85.4430389404,"$GPGGA,222530.60,3945.0731036,N,10513.3041553,W,4,25,0.8,1762.592,M,-15.953,M,2.6,0000*4E"
955,0,0.0,86.4463882446,"$GPGGA,222531.60,3945.0727762,N,10513.3047524,W,4,24,0.8,1762.604,M,-15.952,M,1.6,0000*47"
971,0,0.0,87.4780502319,"$GPGGA,222532.60,3945.0724460,N,10513.3053920,W,4,24,0.8,1762.622,M,-15.952,M,2.6,0000*4C"
989,0,0.0,88.4569854736,"$GPGGA,222533.60,3945.0720704,N,10513.3060700,W,4,23,0.8,1762.638,M,-15.952,M,1.6,0000*4B"
1006,0,0.0,89.4331054688,"$GPGGA,222534.60,3945.0716632,N,10513.3067749,W,4,23,0.8,1762.685,M,-15.952,M,2.6,0000*42"
1021,0,0.0,90.4001464844,"$GPGGA,222535.60,3945.0713231,N,10513.3073845,W,4,23,0.8,1762.713,M,-15.952,M,1.6,0000*4A"
1035,0,0.0,91.4067687988,"$GPGGA,222536.60,3945.0710071,N,10513.3079522,W,4,22,0.9,1762.714,M,-15.952,M,2.6,0000*4E"
1050,0,0.0,92.4260482788,"$GPGGA,222537.60,3945.0706758,N,10513.3085336,W,4,23,0.8,1762.743,M,-15.952,M,1.6,0000*45"
1065,0,0.0,93.3995132446,"$GPGGA,222538.60,3945.0703541,N,10513.3091225,W,4,23,0.8,1762.758,M,-15.952,M,2.6,0000*4A"
1079,0,0.0,94.444519043,"$GPGGA,222539.60,3945.0700322,N,10513.3096703,W,4,22,0.8,1762.808,M,-15.952,M,1.6,0000*45"
1091,0,0.0,95.4141540527,"$GPGGA,222540.60,3945.0697490,N,10513.3101823,W,4,24,0.8,1762.821,M,-15.952,M,2.6,0000*46"
1103,0,0.0,96.4034881592,"$GPGGA,222541.60,3945.0694835,N,10513.3106705,W,4,23,0.8,1762.857,M,-15.952,M,1.6,0000*4E"
1114,0,0.0,97.3925857544,"$GPGGA,222542.60,3945.0692157,N,10513.3110975,W,4,24,0.8,1762.862,M,-15.952,M,2.6,0000*4A"
1126,0,0.0,98.4027633667,"$GPGGA,222543.60,3945.0689602,N,10513.3115707,W,4,24,0.8,1762.875,M,-15.952,M,1.6,0000*4D"
1138,0,0.0,99.444519043,"$GPGGA,222544.60,3945.0687141,N,10513.3120483,W,4,24,0.8,1762.887,M,-15.952,M,2.6,0000*43"
1147,0,0.0,100.546707153,"$GPGGA,222545.60,3945.0684989,N,10513.3124312,W,4,23,0.8,1762.901,M,-15.952,M,1.6,0000*4D"
1157,0,0.0,101.473297119,"$GPGGA,222546.60,3945.0682943,N,10513.3128181,W,4,24,0.8,1762.907,M,-15.952,M,2.6,0000*48"
1165,0,0.0,102.432579041,"$GPGGA,222547.60,3945.0681178,N,10513.3131527,W,4,23,0.8,1762.924,M,-15.952,M,1.6,0000*4F"
1170,0,0.0,103.429023743,"$GPGGA,222548.60,3945.0679882,N,10513.3133659,W,4,23,0.8,1762.926,M,-15.952,M,2.6,0000*42"
1178,0,0.0,104.413322449,"$GPGGA,222549.60,3945.0678333,N,10513.3136846,W,4,24,0.8,1762.957,M,-15.952,M,1.6,0000*44"
1188,0,0.0,105.42175293,"$GPGGA,222550.60,3945.0676123,N,10513.3140875,W,4,23,0.8,1762.967,M,-15.952,M,2.6,0000*47"
1199,0,0.0,106.43888855,"$GPGGA,222551.60,3945.0673694,N,10513.3144889,W,4,24,0.8,1762.988,M,-15.952,M,1.6,0000*4A"
1210,0,0.0,107.437171936,"$GPGGA,222552.60,3945.0671396,N,10513.3149134,W,4,24,0.8,1763.020,M,-15.952,M,2.6,0000*47"
1221,0,0.0,108.422668457,"$GPGGA,222553.60,3945.0668854,N,10513.3153841,W,4,24,0.8,1763.034,M,-15.952,M,1.6,0000*4D"
1232,0,0.0,109.477989197,"$GPGGA,222554.60,3945.0666456,N,10513.3158359,W,4,23,0.8,1763.059,M,-15.952,M,2.6,0000*4C"
1244,0,0.0,110.477790833,"$GPGGA,222555.60,3945.0663955,N,10513.3163162,W,4,24,0.8,1763.060,M,-15.952,M,1.6,0000*4A"
1256,0,0.0,111.463264465,"$GPGGA,222556.60,3945.0661295,N,10513.3167956,W,4,24,0.8,1763.072,M,-15.952,M,2.6,0000*47"
1269,0,0.0,112.424209595,"$GPGGA,222557.60,3945.0658415,N,10513.3173167,W,4,24,0.8,1763.070,M,-15.951,M,1.6,0000*4F"
1282,0,0.0,113.445106506,"$GPGGA,222558.60,3945.0655451,N,10513.3178356,W,4,23,0.8,1763.075,M,-15.951,M,2.6,0000*47"
1297,0,0.0,114.470451355,"$GPGGA,222559.60,3945.0652373,N,10513.3184170,W,4,24,0.8,1763.089,M,-15.951,M,1.6,0000*44"
1311,0,0.0,115.486495972,"$GPGGA,222600.60,3945.0649333,N,10513.3189940,W,4,23,0.8,1763.125,M,-15.951,M,2.6,0000*40"
1324,0,0.0,116.469085693,"$GPGGA,222601.60,3945.0646653,N,10513.3195395,W,4,24,0.8,1763.149,M,-15.951,M,1.6,0000*4C"
1335,0,0.0,117.445671082,"$GPGGA,222602.60,3945.0644024,N,10513.3200107,W,4,23,0.8,1763.182,M,-15.951,M,2.6,0000*4E"
1345,0,0.0,118.405776978,"$GPGGA,222603.60,3945.0641804,N,10513.3204109,W,4,25,0.8,1763.160,M,-15.951,M,1.6,0000*43"
1348,0,0.0,119.70451355,"$GPGGA,222604.60,3945.0640735,N,10513.3206311,W,4,23,0.9,1763.159,M,-15.951,M,2.6,0000*4F"
1348,0,0.0,119.70476532,"$GPGGA,222605.60,3945.0640784,N,10513.3206292,W,4,23,0.9,1763.168,M,-15.951,M,1.6,0000*4F"
