;GPS@@@
;Ver=1.1.0
;DIP=2009-00152-00
;Date=2026-Jan-31 00:05:10
;Offset_m=0.00,0.00,0.00
;Latency_s=0.00
;---------------------------------------------------------------------------------------------------------------------------------------------
traces,odo_tick,pos(m),time_elapsed(s),GPS
1,0,0.0,2.48115992546,"$GPGGA,221913.60,3945.0932956,N,10513.2654527,W,4,24,0.7,1760.552,M,-15.955,M,1.6,0000*47"
2,0,0.0,3.49373292923,"$GPGGA,221914.60,3945.0932944,N,10513.2654523,W,4,24,0.7,1760.558,M,-15.955,M,2.6,0000*4E"
2,0,0.0,3.49420595169,"$GPGGA,221915.60,3945.0932834,N,10513.2654847,W,4,23,0.7,1760.551,M,-15.955,M,1.6,0000*4B"
3,0,0.0,7.48388290405,"$GPGGA,221916.60,3945.0932423,N,10513.2655608,W,4,24,0.7,1760.554,M,-15.955,M,2.6,0000*47"
3,0,0.0,7.48434305191,"$GPGGA,221917.60,3945.0932429,N,10513.2655610,W,4,24,0.7,1760.546,M,-15.955,M,1.6,0000*45"
4,0,0.0,7.48474884033,"$GPGGA,221918.60,3945.0932450,N,10513.2655608,W,4,24,0.7,1760.546,M,-15.955,M,2.6,0000*4E"
4,0,0.0,7.48514795303,"$GPGGA,221919.60,3945.0932464,N,10513.2655633,W,4,23,0.7,1760.544,M,-15.955,M,1.6,0000*46"
6,0,0.0,8.43924808502,"$GPGGA,221920.60,3945.0931930,N,10513.2656680,W,4,22,0.8,1760.557,M,-15.955,M,2.6,0000*47"
11,0,0.0,9.51365375519,"$GPGGA,221921.60,3945.0930937,N,10513.2658468,W,4,24,0.7,1760.572,M,-15.955,M,1.6,0000*47"
19,0,0.0,10.4835758209,"$GPGGA,221922.60,3945.0929466,N,10513.2661396,W,4,23,0.7,1760.592,M,-15.955,M,2.6,0000*43"
27,0,0.0,11.4952859879,"$GPGGA,221923.60,3945.0927640,N,10513.2664681,W,4,24,0.7,1760.632,M,-15.955,M,1.6,0000*41"
34,0,0.0,12.5316152573,"$GPGGA,221924.60,3945.0925949,N,10513.2667874,W,4,24,0.7,1760.645,M,-15.955,M,2.6,0000*46"
42,0,0.0,13.5264835358,"$GPGGA,221925.60,3945.0924229,N,10513.2671019,W,4,24,0.7,1760.642,M,-15.955,M,1.6,0000*4B"
52,0,0.0,14.4871444702,"$GPGGA,221926.60,3945.0922322,N,10513.2674795,W,4,25,0.6,1760.644,M,-15.955,M,2.6,0000*47"
62,0,0.0,15.5034542084,"$GPGGA,221927.60,3945.0920102,N,10513.2678770,W,4,24,0.7,1760.676,M,-15.955,M,1.6,0000*41"
72,0,0.0,16.5207023621,"$GPGGA,221928.60,3945.0917975,N,10513.2683052,W,4,25,0.6,1760.698,M,-15.955,M,2.6,0000*42"
83,0,0.0,17.4879417419,"$GPGGA,221929.60,3945.0915735,N,10513.2687560,W,4,24,0.7,1760.748,M,-15.955,M,1.6,0000*44"
93,0,0.0,18.4589881897,"$GPGGA,221930.60,3945.0913475,N,10513.2691522,W,4,25,0.6,1760.773,M,-15.955,M,2.6,0000*47"
103,0,0.0,19.4462032318,"$GPGGA,221931.60,3945.0911175,N,10513.2695851,W,4,25,0.6,1760.797,M,-15.955,M,1.6,0000*45"
114,0,0.0,20.4773216248,"$GPGGA,221932.60,3945.0908760,N,10513.2699841,W,4,25,0.6,1760.836,M,-15.955,M,2.6,0000*46"
124,0,0.0,21.4773979187,"$GPGGA,221933.60,3945.0906470,N,10513.2703911,W,4,24,0.7,1760.849,M,-15.955,M,1.6,0000*46"
136,0,0.0,22.4665431976,"$GPGGA,221934.60,3945.0903916,N,10513.2708373,W,4,23,0.7,1760.860,M,-15.955,M,2.6,0000*43"
147,0,0.0,23.4595623016,"$GPGGA,221935.60,3945.0901334,N,10513.2713038,W,4,24,0.7,1760.889,M,-15.955,M,1.6,0000*4F"
158,0,0.0,24.5298557281,"$GPGGA,221936.60,3945.0899025,N,10513.2717246,W,4,25,0.6,1760.870,M,-15.955,M,2.6,0000*45"
169,0,0.0,25.5218601227,"$GPGGA,221937.60,3945.0896541,N,10513.2722110,W,4,24,0.6,1760.905,M,-15.955,M,1.6,0000*4B"
181,0,0.0,26.5378494263,"$GPGGA,221938.60,3945.0893956,N,10513.2726965,W,4,23,0.6,1760.921,M,-15.955,M,2.6,0000*47"
194,0,0.0,27.5149345398,"$GPGGA,221939.60,3945.0891425,N,10513.2731988,W,4,23,0.7,1760.952,M,-15.955,M,1.6,0000*4E"
206,0,0.0,28.4647216797,"$GPGGA,221940.60,3945.0888868,N,10513.2736805,W,4,23,0.7,1760.992,M,-15.955,M,2.6,0000*41"
218,0,0.0,29.4417076111,"$GPGGA,221941.60,3945.0886165,N,10513.2741569,W,4,23,0.7,1761.026,M,-15.955,M,1.6,0000*49"
229,0,0.0,30.4443321228,"$GPGGA,221942.60,3945.0884037,N,10513.2746182,W,4,23,0.7,1761.068,M,-15.955,M,2.6,0000*41"
240,0,0.0,31.5653553009,"$GPGGA,221943.60,3945.0881779,N,10513.2750984,W,4,24,0.7,1761.095,M,-15.955,M,1.6,0000*47"
251,0,0.0,32.5181770325,"$GPGGA,221944.60,3945.0879601,N,10513.2755101,W,4,24,0.6,1761.135,M,-15.955,M,2.6,0000*40"
263,0,0.0,33.558052063,"$GPGGA,221945.60,3945.0876976,N,10513.2759965,W,4,22,0.7,1761.169,M,-15.955,M,1.6,0000*4A"
275,0,0.0,34.4878997803,"$GPGGA,221946.60,3945.0874366,N,10513.2765242,W,4,23,0.6,1761.203,M,-15.955,M,2.6,0000*4D"
287,0,0.0,35.4404373169,"$GPGGA,221947.60,3945.0871907,N,10513.2769930,W,4,24,0.7,1761.254,M,-15.955,M,1.6,0000*41"
299,0,0.0,36.4251594543,"$GPGGA,221948.60,3945.0869217,N,10513.2774611,W,4,24,0.7,1761.291,M,-15.955,M,2.6,0000*47"
311,0,0.0,37.430393219,"$GPGGA,221949.60,3945.0866638,N,10513.2779787,W,4,25,0.6,1761.325,M,-15.955,M,1.6,0000*4E"
323,0,0.0,38.4101104736,"$GPGGA,221950.60,3945.0864113,N,10513.2784657,W,4,25,0.6,1761.372,M,-15.954,M,2.6,0000*44"
336,0,0.0,39.5199966431,"$GPGGA,221951.60,3945.0861252,N,10513.2789985,W,4,24,0.7,1761.391,M,-15.954,M,1.6,0000*45"
349,0,0.0,40.4988594055,"$GPGGA,221952.60,3945.0858472,N,10513.2795443,W,4,24,0.6,1761.421,M,-15.954,M,2.6,0000*4C"
363,0,0.0,41.4623222351,"$GPGGA,221953.60,3945.0855550,N,10513.2800666,W,4,24,0.7,1761.469,M,-15.954,M,1.6,0000*49"
376,0,0.0,42.5292358398,"$GPGGA,221954.60,3945.0852682,N,10513.2806314,W,4,23,0.7,1761.521,M,-15.954,M,2.6,0000*4A"
389,0,0.0,43.5086174011,"$GPGGA,221955.60,3945.0850136,N,10513.2811589,W,4,23,0.7,1761.535,M,-15.954,M,1.6,0000*43"
403,0,0.0,44.4988136292,"$GPGGA,221956.60,3945.0847282,N,10513.2817055,W,4,24,0.7,1761.550,M,-15.954,M,2.6,0000*4F"
415,0,0.0,45.433631897,"$GPGGA,221957.60,3945.0844666,N,10513.2822085,W,4,24,0.7,1761.585,M,-15.954,M,1.6,0000*43"
427,0,0.0,46.4887504578,"$GPGGA,221958.60,3945.0842009,N,10513.2827477,W,4,24,0.7,1761.626,M,-15.954,M,2.6,0000*40"
440,0,0.0,47.3941421509,"$GPGGA,221959.60,3945.0839140,N,10513.2832584,W,4,23,0.7,1761.666,M,-15.954,M,1.6,0000*48"
454,0,0.0,48.5786437988,"$GPGGA,222000.60,3945.0836304,N,10513.2838298,W,4,24,0.7,1761.681,M,-15.954,M,2.6,0000*4E"
468,0,0.0,48.579158783,"$GPGGA,222001.60,3945.0833464,N,10513.2843731,W,4,24,0.7,1761.724,M,-15.954,M,1.6,0000*4C"
468,0,0.0,49.4336051941,"$GPGGA,222000.60,3945.0836304,N,10513.2838298,W,4,24,0.7,1761.681,M,-15.954,M,2.6,0000*4E"
468,0,0.0,49.4728431702,"$GPGGA,222001.60,3945.0833464,N,10513.2843731,W,4,24,0.7,1761.724,M,-15.954,M,1.6,0000*4C"
482,0,0.0,50.4384651184,"$GPGGA,222002.60,3945.0830308,N,10513.2849287,W,4,24,0.7,1761.757,M,-15.954,M,2.6,0000*44"
495,0,0.0,51.4304389954,"$GPGGA,222003.60,3945.0827537,N,10513.2854618,W,4,24,0.7,1761.782,M,-15.954,M,1.6,0000*4C"
508,0,0.0,52.549659729,"$GPGGA,222004.60,3945.0824481,N,10513.2860264,W,4,24,0.7,1761.820,M,-15.954,M,2.6,0000*48"
520,0,0.0,53.4424858093,"$GPGGA,222005.60,3945.0821965,N,10513.2865145,W,4,23,0.7,1761.839,M,-15.954,M,1.6,0000*42"
533,0,0.0,54.5139961243,"$GPGGA,222006.60,3945.0819364,N,10513.2870205,W,4,24,0.7,1761.882,M,-15.954,M,2.6,0000*46"
545,0,0.0,55.5160827637,"$GPGGA,222007.60,3945.0816737,N,10513.2875401,W,4,23,0.7,1761.914,M,-15.954,M,1.6,0000*47"
558,0,0.0,56.4424362183,"$GPGGA,222008.60,3945.0814285,N,10513.2880487,W,4,23,0.7,1761.935,M,-15.954,M,2.6,0000*42"
571,0,0.0,57.4968185425,"$GPGGA,222009.60,3945.0811452,N,10513.2886028,W,4,25,0.7,1761.981,M,-15.954,M,1.6,0000*47"
584,0,0.0,58.5138473511,"$GPGGA,222010.60,3945.0808568,N,10513.2891494,W,4,23,0.8,1761.999,M,-15.954,M,2.6,0000*49"
598,0,0.0,59.4411621094,"$GPGGA,222011.60,3945.0805655,N,10513.2897365,W,4,23,0.7,1762.021,M,-15.954,M,1.6,0000*42"
611,0,0.0,60.4854278564,"$GPGGA,222012.60,3945.0802847,N,10513.2902335,W,4,24,0.7,1762.047,M,-15.954,M,2.6,0000*47"
623,0,0.0,61.5424613953,"$GPGGA,222013.60,3945.0800305,N,10513.2907387,W,4,23,0.7,1762.074,M,-15.954,M,1.6,0000*41"
636,0,0.0,62.5521202087,"$GPGGA,222014.60,3945.0797531,N,10513.2912378,W,4,23,0.7,1762.090,M,-15.953,M,2.6,0000*4C"
649,0,0.0,63.5471076965,"$GPGGA,222015.60,3945.0794681,N,10513.2917683,W,4,23,0.7,1762.111,M,-15.953,M,1.6,0000*49"
661,0,0.0,64.4154891968,"$GPGGA,222016.60,3945.0791934,N,10513.2922811,W,4,23,0.7,1762.152,M,-15.953,M,2.6,0000*49"
673,0,0.0,65.4161453247,"$GPGGA,222017.60,3945.0789460,N,10513.2927408,W,4,23,0.7,1762.183,M,-15.953,M,1.6,0000*43"
686,0,0.0,66.5155410767,"$GPGGA,222018.60,3945.0786583,N,10513.2932761,W,4,23,0.7,1762.206,M,-15.953,M,2.6,0000*4A"
698,0,0.0,67.4835586548,"$GPGGA,222019.60,3945.0783990,N,10513.2937694,W,4,24,0.7,1762.236,M,-15.953,M,1.6,0000*49"
708,0,0.0,68.4903564453,"$GPGGA,222020.60,3945.0781801,N,10513.2941688,W,4,24,0.7,1762.243,M,-15.953,M,2.6,0000*45"
719,0,0.0,69.4465179443,"$GPGGA,222021.60,3945.0779336,N,10513.2946513,W,4,25,0.7,1762.267,M,-15.953,M,1.6,0000*4E"
731,0,0.0,70.4503479004,"$GPGGA,222022.60,3945.0776697,N,10513.2951288,W,4,24,0.7,1762.269,M,-15.953,M,2.6,0000*43"
743,0,0.0,71.4342880249,"$GPGGA,222023.60,3945.0774082,N,10513.2955913,W,4,23,0.8,1762.300,M,-15.953,M,1.6,0000*4A"
756,0,0.0,72.5544433594,"$GPGGA,222024.60,3945.0771177,N,10513.2961417,W,4,23,0.8,1762.320,M,-15.953,M,2.6,0000*4C"
769,0,0.0,73.4432601929,"$GPGGA,222025.60,3945.0768247,N,10513.2966059,W,4,24,0.7,1762.345,M,-15.953,M,1.6,0000*44"
782,0,0.0,74.4320449829,"$GPGGA,222026.60,3945.0765401,N,10513.2971729,W,4,24,0.7,1762.373,M,-15.953,M,2.6,0000*4E"
795,0,0.0,75.5117874146,"$GPGGA,222027.60,3945.0762472,N,10513.2977032,W,4,24,0.7,1762.381,M,-15.953,M,1.6,0000*49"
809,0,0.0,76.4090194702,"$GPGGA,222028.60,3945.0759415,N,10513.2982227,W,4,24,0.7,1762.397,M,-15.953,M,2.6,0000*47"
821,0,0.0,77.5047073364,"$GPGGA,222029.60,3945.0756640,N,10513.2987080,W,4,24,0.7,1762.422,M,-15.953,M,1.6,0000*4B"
834,0,0.0,78.4779205322,"$GPGGA,222030.60,3945.0753670,N,10513.2992581,W,4,24,0.7,1762.423,M,-15.953,M,2.6,0000*47"
849,0,0.0,79.4918212891,"$GPGGA,222031.60,3945.0750724,N,10513.2998257,W,4,24,0.7,1762.461,M,-15.953,M,1.6,0000*46"
862,0,0.0,80.4714508057,"$GPGGA,222032.60,3945.0747677,N,10513.3003875,W,4,24,0.7,1762.472,M,-15.953,M,2.6,0000*45"
877,0,0.0,81.4164962769,"$GPGGA,222033.60,3945.0744603,N,10513.3009597,W,4,24,0.7,1762.491,M,-15.953,M,1.6,0000*41"
891,0,0.0,82.4506454468,"$GPGGA,222034.60,3945.0741451,N,10513.3015685,W,4,24,0.7,1762.517,M,-15.953,M,2.6,0000*47"
906,0,0.0,83.4300079346,"$GPGGA,222035.60,3945.0738448,N,10513.3021562,W,4,24,0.7,1762.548,M,-15.953,M,1.6,0000*44"
920,0,0.0,84.4503097534,"$GPGGA,222036.60,3945.0735271,N,10513.3027130,W,4,24,0.7,1762.583,M,-15.953,M,2.6,0000*47"
934,0,0.0,85.5130691528,"$GPGGA,222037.60,3945.0731988,N,10513.3033192,W,4,24,0.7,1762.611,M,-15.953,M,1.6,0000*49"
948,0,0.0,86.4757843018,"$GPGGA,222038.60,3945.0728908,N,10513.3038322,W,4,24,0.7,1762.639,M,-15.953,M,2.6,0000*4D"
962,0,0.0,87.4671630859,"$GPGGA,222039.60,3945.0725584,N,10513.3044213,W,4,24,0.6,1762.644,M,-15.952,M,1.6,0000*48"
978,0,0.0,88.4313735962,"$GPGGA,222040.60,3945.0722114,N,10513.3050583,W,4,24,0.7,1762.650,M,-15.952,M,2.6,0000*40"
994,0,0.0,89.5444335938,"$GPGGA,222041.60,3945.0718992,N,10513.3056827,W,4,24,0.7,1762.681,M,-15.952,M,1.6,0000*44"
1008,0,0.0,90.4183959961,"$GPGGA,222042.60,3945.0715689,N,10513.3062698,W,4,24,0.7,1762.706,M,-15.952,M,2.6,0000*4F"
1022,0,0.0,91.4885635376,"$GPGGA,222043.60,3945.0712384,N,10513.3068362,W,4,24,0.7,1762.734,M,-15.952,M,1.6,0000*49"
1037,0,0.0,92.5104751587,"$GPGGA,222044.60,3945.0709225,N,10513.3074406,W,4,23,0.8,1762.744,M,-15.952,M,2.6,0000*4A"
1053,0,0.0,93.4320449829,"$GPGGA,222045.60,3945.0705869,N,10513.3080520,W,4,22,0.8,1762.759,M,-15.952,M,1.6,0000*45"
1067,0,0.0,94.4942169189,"$GPGGA,222046.60,3945.0702458,N,10513.3086496,W,4,22,0.8,1762.788,M,-15.952,M,2.6,0000*4A"
1081,0,0.0,95.4701156616,"$GPGGA,222047.60,3945.0699569,N,10513.3091923,W,4,22,0.8,1762.824,M,-15.952,M,1.6,0000*44"
1095,0,0.0,96.5317993164,"$GPGGA,222048.60,3945.0696490,N,10513.3097572,W,4,22,0.8,1762.835,M,-15.952,M,2.6,0000*4E"
1109,0,0.0,97.5262145996,"$GPGGA,222049.60,3945.0693350,N,10513.3103418,W,4,24,0.7,1762.887,M,-15.952,M,1.6,0000*43"
1124,0,0.0,98.5251998901,"$GPGGA,222050.60,3945.0690127,N,10513.3109449,W,4,24,0.7,1762.881,M,-15.952,M,2.6,0000*41"
1139,0,0.0,99.4453964233,"$GPGGA,222051.60,3945.0686641,N,10513.3115311,W,4,24,0.7,1762.893,M,-15.952,M,1.6,0000*47"
1154,0,0.0,100.449630737,"$GPGGA,222052.60,3945.0683218,N,10513.3121332,W,4,23,0.7,1762.906,M,-15.952,M,2.6,0000*46"
1169,0,0.0,101.420158386,"$GPGGA,222053.60,3945.0679653,N,10513.3127200,W,4,24,0.7,1762.954,M,-15.952,M,1.6,0000*4C"
1183,0,0.0,102.481613159,"$GPGGA,222054.60,3945.0676595,N,10513.3132771,W,4,23,0.7,1763.003,M,-15.952,M,2.6,0000*44"
1196,0,0.0,103.480789185,"$GPGGA,222055.60,3945.0673713,N,10513.3138050,W,4,24,0.7,1763.020,M,-15.952,M,1.6,0000*47"
1210,0,0.0,104.500679016,"$GPGGA,222056.60,3945.0670640,N,10513.3143653,W,4,24,0.7,1763.036,M,-15.952,M,2.6,0000*4D"
1223,0,0.0,105.471496582,"$GPGGA,222057.60,3945.0667834,N,10513.3148896,W,4,25,0.6,1763.037,M,-15.952,M,1.6,0000*49"
1237,0,0.0,106.465148926,"$GPGGA,222058.60,3945.0664897,N,10513.3154386,W,4,25,0.6,1763.074,M,-15.952,M,2.6,0000*4F"
1252,0,0.0,107.483604431,"$GPGGA,222059.60,3945.0661495,N,10513.3160402,W,4,25,0.6,1763.093,M,-15.952,M,1.6,0000*43"
1266,0,0.0,108.475708008,"$GPGGA,222100.60,3945.0658234,N,10513.3166455,W,4,24,0.6,1763.100,M,-15.952,M,2.6,0000*44"
1281,0,0.0,109.484710693,"$GPGGA,222101.60,3945.0654977,N,10513.3172266,W,4,25,0.6,1763.100,M,-15.951,M,1.6,0000*47"
1295,0,0.0,110.474220276,"$GPGGA,222102.60,3945.0651797,N,10513.3177690,W,4,25,0.6,1763.097,M,-15.951,M,2.6,0000*45"
1309,0,0.0,111.449798584,"$GPGGA,222103.60,3945.0648608,N,10513.3183217,W,4,25,0.6,1763.120,M,-15.951,M,1.6,0000*45"
1323,0,0.0,112.460090637,"$GPGGA,222104.60,3945.0645509,N,10513.3188537,W,4,24,0.7,1763.149,M,-15.951,M,2.6,0000*4F"
1335,0,0.0,113.506851196,"$GPGGA,222105.60,3945.0642637,N,10513.3193565,W,4,24,0.7,1763.175,M,-15.951,M,1.6,0000*46"
1347,0,0.0,114.481437683,"$GPGGA,222106.60,3945.0640017,N,10513.3198715,W,4,23,0.7,1763.197,M,-15.951,M,2.6,0000*45"
1359,0,0.0,115.455795288,"$GPGGA,222107.60,3945.0637552,N,10513.3203528,W,4,23,0.7,1763.199,M,-15.951,M,1.6,0000*40"
1366,0,0.0,118.903053284,"$GPGGA,222108.60,3945.0636000,N,10513.3206784,W,4,24,0.7,1763.180,M,-15.951,M,2.6,0000*41"
1366,0,0.0,118.903549194,"$GPGGA,222109.60,3945.0635705,N,10513.3207366,W,4,24,0.7,1763.175,M,-15.951,M,1.6,0000*41"
1366,0,0.0,118.903953552,"$GPGGA,222110.60,3945.0635675,N,10513.3207404,W,4,24,0.6,1763.176,M,-15.951,M,2.6,0000*4D"
1366,0,0.0,118.904350281,"$GPGGA,222111.60,3945.0635643,N,10513.3207374,W,4,24,0.6,1763.196,M,-15.951,M,1.6,0000*44"
